Name,Address,Town,State,Postcode,Male,Female,FacilityType,AccessLimited,PaymentRequired,KeyRequired,Parking,AccessibleMale,AccessibleFemale,AccessibleUnisex,MLAK,ParkingAccessible,OpeningHours,BabyChange,Showers,DrinkingWater,SharpsDisposal,SanitaryDisposal,Latitude,Longitude
Sandy Beach Reserve,West Road,Bassendean,Western Australia,6054,true,true,Park or reserve,false,false,false,false,true,true,false,false,false,AllHours,false,true,false,true,false,-31.921836,115.95020622
Point Reserve,North Road,Bassendean,Western Australia,6054,true,true,Park or reserve,false,false,false,false,true,true,false,false,false,DaylightHours,false,false,false,false,false,-31.9044101,115.9609911
Success Hill Reserve,Off Seventh Avenue,Bassendean,Western Australia,6054,true,true,Park or reserve,false,false,false,true,true,true,false,false,true,DaylightHours,true,true,true,true,false,-31.89628865,115.95578101
Jubilee Reserve,Robinson Road,Eden Hill,Western Australia,6054,true,true,Park or reserve,false,false,false,false,false,false,false,false,false,DaylightHours,false,false,false,true,false,-31.891474,115.9401637
Ashfield Reserve,Guildford Road,Ashfield,Western Australia,6054,true,true,Park or reserve,false,false,false,true,false,false,false,false,true,DaylightHours,false,false,false,true,false,-31.91343349,115.9364772
,,,,,,,,,,,,,,,,,,,,,,,,
Mary Crescent Reserve,Mary Crescent,Eden Hill,Western Australia,6054,true,true,Park or reserve,false,false,false,true,false,false,false,false,true,DaylightHours,true,false,false,false,false,-31.89036599,115.9480897
Bassendean Oval 3,Old Perth Road,Bassendean,Western Australia,6054,true,true,Sporting facility,false,false,false,false,true,true,false,false,false,Variable,false,false,false,false,false,-31.90371581,115.9564902
"Apex Park, Moranbah Access Road",Goonyella Road,Moranbah,Queensland,4744,true,true,Park or reserve,false,false,false,true,false,false,false,false,false,AllHours,false,false,false,false,false,-22.01444418,148.04524183
"Lions Park, Belyando Avenue",12 Belyando Avenue,Moranbah,Queensland,4744,true,true,Park or reserve,false,false,false,true,false,false,false,false,false,AllHours,false,false,false,false,false,-21.9993408,148.04397329
Parella Street,Parella Street,Moranbah,Queensland,4744,false,false,Park or reserve,false,false,false,true,true,true,false,false,false,AllHours,false,true,false,false,false,-22.0001525,148.04861593
Nolan Park,Yeates Street,Moranbah,Queensland,4744,false,false,Park or reserve,false,false,false,true,false,false,false,false,false,AllHours,false,false,false,false,false,-22.00330089,148.0661184
Binda Park,Grosvenor Drive,Moranbah,Queensland,4744,false,false,Park or reserve,false,false,false,true,false,false,true,false,false,AllHours,true,false,false,false,false,-22.00475579,148.03688242
"Samson Street, Spring Park",Samson Street,Clermont,Queensland,4721,true,true,Park or reserve,false,false,false,false,false,false,false,false,false,AllHours,false,false,false,false,false,-22.83395213,147.6281099
"Copperfield Road, Lions Park",Copperfield Road,Clermont,Queensland,4721,true,true,Park or reserve,false,false,false,false,false,false,false,false,false,AllHours,false,false,false,false,false,-22.83004599,147.6280868
,,,,,,,,,,,,,,,,,,,,,,,,
"Lime Street, Centenary Park",Lime Street,Clermont,Queensland,4721,true,true,Park or reserve,false,false,false,false,false,false,false,false,false,AllHours,false,false,false,false,false,-22.8183737,147.6417002
,,,,,,,,,,,,,,,,,,,,,,,,
,,,,,,,,,,,,,,,,,,,,,,,,
Sam Brischetto Park,Bon Villa Avenue,Hudson,Queensland,4860,true,true,Park or reserve,false,false,false,false,false,false,false,false,false,AllHours,false,false,false,false,false,-17.52168719,145.9889661
Fred Drew Park,Palmerston Drive,Hudson,Queensland,4860,true,true,Park or reserve,false,false,false,false,false,false,false,false,false,AllHours,false,false,false,false,false,-17.51502477,145.9937873
Anzac Park,Edith Street,Innisfail,Queensland,4860,true,true,Park or reserve,false,false,false,false,true,true,false,false,false,AllHours,false,false,false,false,false,-17.52406506,146.0278857
Jack Fossey Park,Benwell Street,Innisfail,Queensland,4860,true,true,Park or reserve,false,false,false,false,false,false,false,false,false,AllHours,false,false,false,false,false,-17.52355834,146.03253866
Fitzgerald Park,Esplanade,Innisfail,Queensland,4860,true,true,Park or reserve,false,false,false,false,false,false,false,false,false,AllHours,false,false,false,false,false,-17.51981571,146.0310243
Warrina Lakes,Emily Street,Innisfail,Queensland,4860,true,true,Park or reserve,false,false,false,false,true,true,false,false,false,Variable,false,false,false,false,false,-17.51839405,146.0246337
Callandar Park 2,Ernest Street,Innisfail,Queensland,4860,true,true,Park or reserve,false,false,false,false,false,false,false,false,false,AllHours,false,false,false,false,false,-17.51664911,146.0269338
,,,,,,,,,,,,,,,,,,,,,,,,
,,,,,,,,,,,,,,,,,,,,,,,,
,,,,,,,,,,,,,,,,,,,,,,,,
Wrights Park,Sherwood Street,East Innisfail,Queensland,4860,true,true,Park or reserve,false,false,false,false,false,false,false,false,false,AllHours,false,false,false,false,false,-17.52870492,146.039882
Castor Park,Castor Street,Mourilyan Harbour,Queensland,4858,true,true,Park or reserve,false,false,false,false,true,true,false,false,false,AllHours,false,false,false,false,false,-17.58434935,146.0404424
Wangan Sports Ground,Cheshire Street,Wangan,Queensland,4871,true,true,Sporting facility,false,false,false,false,false,false,false,false,false,Variable,false,false,false,false,false,-17.57451729,146.0085622
,,,,,,,,,,,,,,,,,,,,,,,,
,,,,,,,,,,,,,,,,,,,,,,,,
,,,,,,,,,,,,,,,,,,,,,,,,
Sharpe Park,Polich Road,Germantown,Queensland,4871,true,true,Park or reserve,false,false,false,false,false,false,false,false,false,AllHours,false,false,false,false,false,-17.66090163,145.962462
Centenary Park,Silkwood - Japoon Road,Silkwood,Queensland,4856,true,true,Park or reserve,false,false,false,false,false,false,false,false,false,Variable,false,false,false,false,false,-17.74117696,146.0143938
,,,,,,,,,,,,,,,,,,,,,,,,
,,,,,,,,,,,,,,,,,,,,,,,,
,,,,,,,,,,,,,,,,,,,,,,,,
,,,,,,,,,,,,,,,,,,,,,,,,
,,,,,,,,,,,,,,,,,,,,,,,,
,,,,,,,,,,,,,,,,,,,,,,,,
,,,,,,,,,,,,,,,,,,,,,,,,
,,,,,,,,,,,,,,,,,,,,,,,,
Camp Area,Bingil Bay Road,Bingil Bay,Queensland,4852,true,true,Camping ground,false,false,false,false,false,false,false,false,false,AllHours,false,false,false,false,false,-17.82990204,146.0997934
Marc Park,Tully - Mission Beach Road,Mission Beach,Queensland,4852,true,true,Park or reserve,false,false,false,false,false,false,false,false,false,AllHours,false,false,false,false,false,-17.87259629,146.0922595
,,,,,,,,,,,,,,,,,,,,,,,,
,,,,,,,,,,,,,,,,,,,,,,,,
Alan Anderson Park,180 Lawnbrook Road West,Walliston,Western Australia,6076,true,true,Park or reserve,false,false,false,true,true,true,false,false,false,AllHours,false,false,true,false,false,-32.00573662,116.08273845
Pickering Brook,251 Pickering Brook Road,Pickering Brook,Western Australia,6076,true,true,Other,false,false,false,true,false,false,true,false,true,AllHours,true,false,true,false,false,-32.03431628,116.13176399
Kalamunda Bus Station,20-22 Meade Street,Kalamunda,Western Australia,6076,true,true,Bus station,false,false,false,true,false,false,false,false,true,AllHours,false,false,true,false,false,-31.97395651,116.05710895
Fleming Reserve,39 Sorensen Road,High Wycombe,Western Australia,6057,true,true,Sporting facility,false,false,false,true,false,false,true,false,true,AllHours,true,false,true,false,false,-31.94469571,115.9965445
Gooseberry Hill,42 Ledger Road,Gooseberry Hill,Western Australia,6076,true,true,Park or reserve,false,false,false,true,false,false,false,false,true,AllHours,false,false,true,false,false,-31.95597321,116.05786734
Hedley Jorgensen Park,Crescent Road,Kalamunda,Western Australia,6076,true,true,Park or reserve,false,false,false,true,true,true,false,false,true,AllHours,false,false,true,false,false,-31.97223654,116.06496799
Kalamunda Library,8 Williams Street,Kalamunda,Western Australia,6076,true,true,Other,false,false,false,true,true,true,false,false,true,Variable,false,false,true,false,false,-31.97119288,116.06000933
Lesmurdie Falls,Falls Road,Lesmurdie,Western Australia,6076,true,true,Park or reserve,false,false,false,true,false,false,false,false,false,AllHours,false,false,false,false,false,-31.99553312,116.03372231
Maida Vale Reserve,40B Acacia Road,Maida Vale,Western Australia,6057,true,true,Sporting facility,false,false,false,true,false,false,false,false,true,AllHours,false,false,true,false,false,-31.94907811,116.02589133
Stirk Park,Cnr Kalamunda & Headingly Roads,Kalamunda,Western Australia,6076,true,true,Park or reserve,false,false,false,true,false,false,true,false,true,AllHours,false,false,true,false,false,-31.96945213,116.05503051
SKAMP Hall,22 Falls Road,Lesmurdie,Western Australia,6076,true,true,Sporting facility,false,false,false,true,false,false,false,false,true,AllHours,false,false,true,false,false,-31.99253538,116.049764
Town Hall Square,5 Barber Street,Kalamunda,Western Australia,6076,true,true,Park or reserve,false,false,false,true,true,true,false,false,true,Variable,false,false,true,true,false,-31.97237555,116.05797167
,,,,,,,,,,,,,,,,,,,,,,,,
,,,,,,,,,,,,,,,,,,,,,,,,
Town Beach,Friedman Way,Exmouth,Western Australia,6707,true,true,Car park,false,false,false,true,false,false,false,false,false,AllHours,false,true,false,false,false,-21.9453106,114.1397015
Visitors Centre,Murat Road,Exmouth,Western Australia,6707,true,true,Other,false,false,true,true,false,false,true,false,false,DaylightHours,true,true,true,false,false,-22.0190865,114.1117995
,,,,,,,,,,,,,,,,,,,,,,,,
Tantabiddi Boat Ramp,Yardie Creek Road,North West Cape,Western Australia,6707,false,false,Car park,false,false,false,true,false,false,true,false,false,AllHours,false,false,false,false,false,-21.91922,113.9788262
Frew Street,55 Frew Street,Thargomindah,Queensland,4492,true,true,Other,false,false,false,true,false,false,false,false,false,AllHours,false,true,true,false,false,-27.99456434,143.82137868
Fergies Roadhouse,33 Stafford Street,Thargomindah,Queensland,4492,true,true,Service station,false,false,false,false,false,false,true,false,false,AllHours,false,false,false,false,false,-27.99442957,143.82284626
Napunyah Caravan Park,45 Powell Street,Thargomindah,Queensland,4492,true,true,Caravan park,false,false,false,false,false,false,false,false,false,AllHours,false,false,false,false,false,-27.99712237,143.82525576
,,,,,,,,,,,,,,,,,,,,,,,,
William Simmons Memorial Park,Gore Highway,Millmerran,Queensland,4357,true,true,Park or reserve,false,false,false,false,false,false,false,false,false,AllHours,false,false,false,false,false,-27.87681745,151.2580584
Bicentennial Park,Factory Lane,Millmerran,Queensland,4357,true,true,Park or reserve,false,false,false,false,false,false,false,false,false,Variable,false,false,false,false,false,-27.87448115,151.2677834
Anzac Memorial Park,Charlotte Street,Millmerran,Queensland,4357,true,true,Park or reserve,false,false,false,false,true,true,false,false,false,AllHours,false,false,false,false,false,-27.87502444,151.270011
Lions Park,Edward Street,Millmerran,Queensland,4357,true,true,Park or reserve,false,false,false,false,false,false,false,false,false,AllHours,false,false,false,false,false,-27.87469842,151.2743574
,,,,,,,,,,,,,,,,,,,,,,,,
,,,,,,,,,,,,,,,,,,,,,,,,
Apex Park,Toowoomba - Cecil Plains Road,Cecil Plains,Queensland,4407,true,true,Park or reserve,false,false,false,false,true,true,false,false,false,AllHours,false,false,false,false,false,-27.53269062,151.2045262
Short Street,Short Street,Beaudesert,Queensland,4285,true,true,Other,false,false,false,true,false,false,true,false,true,AllHours,false,false,false,false,false,-27.98728166,152.995396
Jubilee Park,Telemon Street,Beaudesert,Queensland,4285,true,true,Park or reserve,false,false,false,false,true,true,false,false,false,DaylightHours,false,false,false,false,false,-27.9895395,152.9947928
Selwyn Park,Hopkins Street,Beaudesert,Queensland,4285,true,true,Park or reserve,false,false,false,true,true,true,false,false,true,AllHours,false,false,false,false,false,-27.98912589,152.9900359
Darlington Park,Kerry Road,Darlington,Queensland,4285,true,true,Camping ground,false,false,false,true,true,true,false,false,true,DaylightHours,false,false,false,false,false,-28.18623186,153.0413241
Burgess Park,Christmas Creek Road,Southern Lamington,Queensland,4211,true,true,Camping ground,false,false,false,true,false,false,false,false,false,AllHours,false,false,false,false,false,-28.23893635,152.99585
Stinson Park,Christmas Creek Road,Southern Lamington,Queensland,4211,true,true,Camping ground,false,false,false,true,true,true,false,false,true,AllHours,false,false,false,false,false,-28.28729982,153.0360018
Tilley Park,Mount Lindesay Highway,Rathdowney,Queensland,4287,true,true,Park or reserve,false,false,false,true,true,true,false,false,true,AllHours,false,false,false,false,false,-28.22161473,152.8589774
Collins Park,Collins Street,Rathdowney,Queensland,4287,true,true,Park or reserve,false,false,false,true,true,true,false,false,true,AllHours,false,false,false,false,false,-28.21135412,152.8639323
Greenbank Meadows Park,Campbell Road,Greenbank,Queensland,4124,true,true,Park or reserve,false,false,false,false,true,true,false,false,false,AllHours,false,false,false,false,false,-27.72763687,153.0031428
Pioneer Park ,Mount Lindesay Highway,Woodhill,Queensland,4285,true,true,Park or reserve,false,false,false,false,false,false,false,false,false,AllHours,false,false,false,false,false,-27.90050994,152.973296
Paynes Bridge Park,Cusack Lane,Jimboomba,Queensland,4280,true,true,Park or reserve,false,false,false,true,false,false,false,false,false,AllHours,false,false,false,false,false,-27.81913385,153.0017816
North Tamborine Park,Geissmann Street,Tamborine Mountain,Queensland,4272,true,true,Park or reserve,false,false,false,true,false,false,false,false,false,AllHours,false,false,false,false,false,-27.92298362,153.1836499
Tully Park,Mount Lindesay Highway,North Maclean,Queensland,4280,true,true,Park or reserve,false,false,false,true,true,true,false,false,false,Variable,false,false,false,false,false,-27.78372921,153.0108736
Newstead Park,Rona Street,Logan Reserve,Queensland,4133,true,true,Park or reserve,false,false,false,true,false,false,false,false,false,Variable,false,false,false,false,false,-27.72817949,153.116847
Doughty Park,Geissmann Drive,Tamborine Mountain,Queensland,4272,true,true,Park or reserve,false,false,false,true,false,false,true,false,true,AllHours,true,false,false,false,false,-27.92814951,153.1851172
Staffsmith Park,Southport Avenue,Tamborine Mountain,Queensland,4272,true,true,Park or reserve,false,false,false,true,true,true,false,false,true,AllHours,false,false,false,false,false,-27.92211697,153.2086813
Rosser Park ,Prospect Street,Tamborine Mountain,Queensland,4272,true,true,Park or reserve,false,false,false,true,true,true,false,false,true,AllHours,false,false,false,false,false,-27.97299655,153.1968815
Tamborine Memorial Grounds,Waterford-Tamborine Road,Tamborine,Queensland,4270,true,true,Park or reserve,false,false,false,true,true,true,false,false,false,AllHours,false,false,false,false,false,-27.8772353,153.1250571
Smith Park,Kidston Street,Canungra,Queensland,4275,true,true,Park or reserve,false,false,false,true,true,true,false,false,true,AllHours,false,false,false,false,false,-28.01761469,153.1643722
Sharp Park,Beechmont Road,Witheren,Queensland,4275,true,true,Camping ground,false,false,false,true,true,true,false,false,true,AllHours,false,false,false,false,false,-28.04900123,153.1890703
Graceleigh Park,Beechmont Road,Beechmont,Queensland,4211,true,true,Park or reserve,false,false,false,true,true,true,false,false,false,AllHours,false,false,false,false,false,-28.12535695,153.1869555
Rosins Lookout,Beechmont Road,Beechmont,Queensland,4211,true,true,Park or reserve,false,false,false,true,true,true,false,false,false,AllHours,false,false,false,false,false,-28.10946075,153.2135541
Bigriggan Camping Reserve,Bigriggan Road,Rathdowney,Queensland,4287,true,true,Camping ground,false,false,false,false,false,false,false,false,false,DaylightHours,false,false,false,false,false,-28.1985516,152.7777735
Yellow Pinch Camping Reserve,Upper Logan Road,Mount Barney,Queensland,4287,true,true,Park or reserve,false,false,false,false,true,true,false,false,false,DaylightHours,false,false,false,false,false,-28.25458044,152.7475182
Logan Village Community Centre,River Street,Logan Village,Queensland,4207,true,true,Park or reserve,false,false,false,true,true,true,false,false,true,AllHours,false,false,false,false,false,-27.76768672,153.1051244
Flanagan Camping Reserve,Flanagan Reserve Road,Barney View,Queensland,4287,true,true,Park or reserve,false,false,false,true,false,false,true,false,true,DaylightHours,false,true,false,false,false,-28.21337191,152.7652437
North Tamborine,Knoll Road,Tamborine Mountain,Queensland,4272,true,true,Sporting facility,false,false,false,false,false,false,false,false,false,Variable,false,false,false,false,false,-27.92254701,153.185196
Mavor Park,Helen Street,Beaudesert,Queensland,4285,true,true,Sporting facility,false,false,false,false,false,false,false,false,false,Variable,false,false,false,false,false,-27.97381667,152.9916847
Kooralbyn,Wellington Bundock Drive,Kooralbyn,Queensland,4285,true,true,Park or reserve,false,false,false,true,true,true,false,false,false,DaylightHours,false,false,false,false,false,-28.08623723,152.8440441
Greenbank Community Centre,145-167 Teviot Road,Greenbank,Queensland,4124,true,true,Park or reserve,false,false,false,true,true,true,false,false,true,AllHours,false,true,false,false,false,-27.72927597,152.9831434
Middle Park,Beaudesert-Beenleigh Road,Tamborine,Queensland,4270,true,true,Park or reserve,false,false,false,true,true,true,false,false,true,AllHours,false,false,false,false,false,-27.87974128,153.1306855
Everdell,Mount Lindesay Highway,Veresdale,Queensland,4285,true,true,Sporting facility,false,false,false,true,true,true,false,false,true,Variable,false,false,false,false,false,-27.93873083,152.9831959
Moriarty Park,Coburg Road,Canungra,Queensland,4275,true,true,Sporting facility,false,false,false,true,false,false,false,false,true,Variable,false,false,false,false,false,-28.01907655,153.1594418
Merv and Ollie Musch Park,Quinzeh Creek Road,Logan Village,Queensland,4207,true,true,Sporting facility,false,false,false,false,true,true,false,false,false,Variable,false,false,false,false,false,-27.76355961,153.1171135
Dapsang Drive Park,Dapsang Drive,Tamborine Mountain,Queensland,4272,true,true,Park or reserve,false,false,false,true,true,true,false,false,true,DaylightHours,false,false,false,false,false,-27.92600588,153.1937362
Lions Park,Tom Enright Drive,Beaudesert,Queensland,4285,true,true,Park or reserve,false,false,false,true,true,true,false,false,true,DaylightHours,false,false,false,false,false,-27.99199863,152.99321878
Junior Chamber Park,Brooklands Drive,Beaudesert,Queensland,4285,true,true,Park or reserve,false,false,false,true,true,true,false,false,false,AllHours,false,false,false,false,false,-27.99478787,153.0183437
Rathdowney Memorial Grounds,Mount Lindesay Highway,Rathdowney,Queensland,4287,true,true,Sporting facility,false,false,false,true,true,true,false,false,false,AllHours,false,true,false,false,false,-28.21210377,152.8642119
Brushwood Park,Brushwood Crescent,Cedar Grove,Queensland,4285,true,true,Park or reserve,false,false,false,true,false,false,true,false,false,DaylightHours,false,false,true,false,false,-27.85941724,152.9787581
Rotary Park,Cusack Lane,Jimboomba,Queensland,4280,true,true,Park or reserve,false,false,false,true,true,true,false,false,true,AllHours,false,false,false,false,false,-27.83030679,153.0232491
Mount Tamborine Botanic Gardens,Kinabalu Drive,Tamborine Mountain,Queensland,4272,true,true,Park or reserve,false,false,false,true,true,true,false,false,false,DaylightHours,false,false,false,false,false,-27.9154251,153.2035672
Dick Westermann Park,Mount Lindesay Highway,Beaudesert,Queensland,4285,true,true,Park or reserve,false,false,false,true,true,true,false,false,true,AllHours,false,false,false,false,false,-27.96867291,152.9945477
Argyle Road Park,Argyle Road,Greenbank,Queensland,4124,true,true,Park or reserve,false,false,false,false,true,true,false,false,false,AllHours,false,false,false,false,false,-27.72803112,152.9626232
Thorndon Park,Hamilton Terrace,Paradise,South Australia,5075,true,true,Park or reserve,false,false,false,true,true,true,false,false,false,DaylightHours,false,false,false,false,false,-34.87507079,138.6899417
Jenkins Avenue Reserve,Maple Avenue,Rostrevor,South Australia,5073,true,true,Sporting facility,false,false,false,false,false,false,false,false,false,AllHours,false,false,false,false,false,-34.8955965,138.6854855
The Gums Reserve,Shakespeare Avenue,Tranmere,South Australia,5073,false,false,Park or reserve,false,false,false,true,false,false,true,false,true,DaylightHours,true,false,false,true,true,-34.90790107,138.6649328
Lovell Reserve,Ryan Avenue,Athelstone,South Australia,5076,true,true,Park or reserve,false,false,false,false,false,false,false,false,false,AllHours,false,false,false,false,false,-34.8683735,138.7039165
Fox Field Oval,Maryvale Road,Athelstone,South Australia,5076,true,true,Sporting facility,false,false,false,true,true,true,false,false,false,DaylightHours,false,false,false,false,false,-34.8809835,138.7012645
Shirley Avenue Reserve,Shirley Avenue,Tranmere,South Australia,5073,true,true,Park or reserve,false,false,false,false,false,false,false,false,false,AllHours,false,false,false,false,false,-34.89767227,138.6642603
Max Amber Sports Field,Schulze Road,Athelstone,South Australia,5076,true,true,Sporting facility,false,false,false,true,false,false,false,false,false,AllHours,false,false,false,false,false,-34.86938285,138.6930624
Etheridge Shire Hall,St George Street,Georgetown,Queensland,4871,true,true,Other,false,false,false,true,false,false,false,false,false,AllHours,false,false,false,false,false,-18.29279177,143.5496957
Heritage Park,High Street,Georgetown,Queensland,4871,true,true,Park or reserve,false,false,false,true,false,false,true,false,true,AllHours,true,false,false,false,false,-18.29188807,143.5477345
Einasleigh Public Toilet,Baroota Street,Einasleigh,Queensland,4871,true,true,Park or reserve,false,false,false,true,false,false,true,false,false,AllHours,false,false,false,false,false,-18.51193658,144.0938149
Doug Talbot Park Ablutions,Central Road,Tom Price,Western Australia,6751,true,true,Park or reserve,false,false,false,false,false,false,true,false,true,Variable,true,true,false,true,true,-22.69426008,117.7946966
Lions Park,North Road,Tom Price,Western Australia,6751,true,true,Park or reserve,false,false,false,true,true,true,false,false,false,Variable,false,false,false,true,false,-22.68820954,117.7922808
Clem Thompson Memorial Oval,Jacaranda Drive,Tom Price,Western Australia,6751,true,true,Sporting facility,false,false,true,true,true,true,false,false,true,Variable,false,false,false,false,false,-22.6945925,117.7986638
Tjiluna Oval,Willow Road,Tom Price,Western Australia,6751,true,true,Sporting facility,false,false,false,false,true,true,false,false,false,Variable,false,false,false,false,false,-22.69649856,117.7964253
Area W Oval,Tanunda Street,Tom Price,Western Australia,6751,true,true,Sporting facility,false,false,false,false,false,false,false,false,false,Variable,false,false,false,false,false,-22.68202608,117.7817311
Shopping Centre,Mininer Lane,Paraburdoo,Western Australia,6754,true,true,Shopping centre,false,false,false,false,true,true,false,false,false,AllHours,false,false,false,false,false,-23.20013251,117.671459
Peter Sutherland Oval,Fortescue Road,Paraburdoo,Western Australia,6754,true,true,Sporting facility,false,false,false,true,true,true,false,false,false,AllHours,false,false,false,false,false,-23.19729563,117.6699297
,,,,,,,,,,,,,,,,,,,,,,,,
Apex Park,Currall Street,Narembeen,Western Australia,6369,true,true,Park or reserve,false,false,false,false,false,false,false,false,false,AllHours,false,false,false,false,false,-32.06407649,118.39591
Chinatown,Carnarvon Street,Bilingurr,Western Australia,6725,false,false,Park or reserve,false,false,false,false,false,false,true,false,false,Variable,false,false,false,true,false,-17.95478523,122.2428275
Town Beach,Robinson Street,Bilingurr,Western Australia,6725,true,true,Park or reserve,false,false,false,true,false,false,true,false,true,Variable,false,false,true,true,true,-17.97137163,122.2351442
Cable Beach,Cable Beach Road West,Cable Beach,Western Australia,6726,true,true,Park or reserve,false,false,false,true,false,false,true,false,true,Variable,false,true,true,true,true,-17.92959276,122.2107098
Gantheaume Point,Gantheaume Point Road,Minyirr,Western Australia,6725,false,false,Park or reserve,false,false,false,true,false,false,false,false,false,AllHours,false,false,false,true,false,-17.97451939,122.1819132
,,,,,,,,,,,,,,,,,,,,,,,,
,,,,,,,,,,,,,,,,,,,,,,,,
,,,,,,,,,,,,,,,,,,,,,,,,
,,,,,,,,,,,,,,,,,,,,,,,,
,,,,,,,,,,,,,,,,,,,,,,,,
Dennes Point,Nebraska Road,Dennes Point,Tasmania,7150,true,true,Park or reserve,false,false,false,true,true,true,false,false,false,AllHours,false,false,false,false,false,-43.06827702,147.34982194
Dru Point Reserve,,Margate,Tasmania,7054,true,true,Park or reserve,false,false,false,false,true,true,false,false,false,DaylightHours,false,false,false,false,false,-43.02649722,147.2773993
,,,,,,,,,,,,,,,,,,,,,,,,
Gordon Oval,Channel Highway,Gordon,Tasmania,7150,false,false,Park or reserve,false,false,false,false,false,false,true,false,true,AllHours,false,false,false,false,false,-43.26149944,147.2424053
Kettering Oval,Channel Highway,Kettering,Tasmania,7155,true,true,Sporting facility,false,false,false,true,false,false,false,false,false,AllHours,false,false,false,false,false,-43.12549834,147.2474021
Margate Oval,Channel Highway,Margate,Tasmania,7054,true,true,Sporting facility,false,false,false,false,false,false,false,false,false,AllHours,false,false,false,false,false,-43.02949741,147.2633996
,,,,,,,,,,,,,,,,,,,,,,,,
,,,,,,,,,,,,,,,,,,,,,,,,
,,,,,,,,,,,,,,,,,,,,,,,,
Silverwater Park,Channel Highway,Woodbridge,Tasmania,7162,true,true,Park or reserve,false,false,false,false,false,false,false,false,false,AllHours,false,false,false,false,false,-43.16249872,147.2394031
,,,,,,,,,,,,,,,,,,,,,,,,
Taroona Beach,Niree Parade,Taroona,Tasmania,7053,true,true,Park or reserve,false,false,false,false,true,true,false,false,false,AllHours,false,false,false,false,false,-42.95194387,147.35175971
,,,,,,,,,,,,,,,,,,,,,,,,
,,,,,,,,,,,,,,,,,,,,,,,,
Sandfly Hall,Sandfly Road,Longley,Tasmania,7150,false,false,Other,false,false,false,false,false,false,false,false,false,AllHours,false,false,false,false,false,-42.9844979,147.1953998
,,,,,,,,,,,,,,,,,,,,,,,,
Recreation Ground,,Currie,Tasmania,7256,true,true,Sporting facility,false,false,false,false,true,true,false,false,false,AllHours,false,false,false,false,false,-39.93338501,143.8487447
Huxley Street,Huxley Street,Currie,Tasmania,7256,true,true,Other,false,false,false,false,true,true,false,false,false,AllHours,false,false,false,true,false,-39.92967156,143.85056523
,,,,,,,,,,,,,,,,,,,,,,,,
Pennys Lagoon,,Yambacoona,Tasmania,7256,true,true,Park or reserve,false,false,false,false,false,false,true,false,false,AllHours,false,false,false,false,false,-39.65581764,144.0802126
Esplanade,Esplanade,Strahan,Tasmania,7468,true,true,Car park,false,false,false,true,true,true,false,false,true,AllHours,false,true,false,false,true,-42.15515834,145.3259068
Sticht Street,Sticht Street,Queenstown,Tasmania,7467,true,true,Park or reserve,false,false,false,false,false,false,true,false,false,AllHours,false,false,false,false,false,-42.08079925,145.5559733
,,,,,,,,,,,,,,,,,,,,,,,,
,,,,,,,,,,,,,,,,,,,,,,,,
Agnes St Rosebery,Agnes Street,Rosebery,Tasmania,7470,true,true,Car park,false,false,false,false,false,false,true,false,false,DaylightHours,false,false,false,false,false,-41.779581,145.539552
Howards Park Zeehan,121 MAIN ST,Zeehan,Tasmania,7469,false,false,Park or reserve,false,false,false,false,false,false,true,false,false,Variable,false,false,false,false,false,-41.8832,145.33617
Purkiss Reserve,Ambrose Street,Tennant Creek,Northern Territory,0860,true,true,Park or reserve,false,false,false,false,true,true,false,false,false,Variable,false,false,false,false,false,-19.64425881,134.1930998
Swimming Pool,Ambrose Street,Tennant Creek,Northern Territory,0860,true,true,Sporting facility,false,false,false,false,true,true,false,false,false,Variable,false,false,false,false,false,-19.64513876,134.1940042
Public Library,Peko Road,Tennant Creek,Northern Territory,0860,true,true,Other,false,false,false,false,true,true,false,false,false,Variable,false,false,false,false,false,-19.64667868,134.1960574
Mary Ann Dam,Stuart Highway,Tennant Creek,Northern Territory,0860,true,true,Park or reserve,false,false,false,false,true,true,false,false,false,AllHours,false,false,false,false,false,-19.6063735,134.1996433
Endeavour Square,Chesterfield Circuit,Nhulunbuy,Northern Territory,0880,true,true,Other,false,false,false,false,false,false,true,false,false,AllHours,false,false,false,false,false,-12.18407951,136.7864346
Swim Pool,Mirimina Street,Nhulunbuy,Northern Territory,0880,true,true,Sporting facility,false,false,false,false,false,false,false,false,false,Variable,false,false,false,false,false,-12.18451239,136.787983
,,,,,,,,,,,,,,,,,,,,,,,,
Lakeside Terrace,Lakeside Terrace,Robe,South Australia,5276,true,true,Park or reserve,false,false,false,false,false,false,true,false,false,AllHours,false,false,false,false,false,-37.16993727,139.7689301
Esplanade,Esplanade,Robe,South Australia,5276,true,true,Park or reserve,false,false,false,false,false,false,false,false,false,AllHours,false,false,false,false,false,-37.16469457,139.7819826
Lipson Park,Lipson Park,Robe,South Australia,5276,false,false,Park or reserve,false,false,false,false,false,false,false,false,false,AllHours,false,false,false,false,false,-37.16361596,139.7515847
Mundy Terrace,Mundy Terrace,Robe,South Australia,5276,true,true,Park or reserve,false,false,false,false,false,false,true,false,false,AllHours,false,true,false,false,false,-37.16266636,139.7571868
,,,,,,,,,,,,,,,,,,,,,,,,
Apex Park,Railway Terrace,Karoonda,South Australia,5307,true,true,Park or reserve,false,false,false,false,false,false,true,false,false,AllHours,false,false,false,false,false,-35.096022,139.8901375
Stephen Terrace,Stephen Terrace,Gilberton,South Australia,5081,true,true,Other,false,false,false,false,false,false,false,false,false,Variable,false,false,false,false,false,-34.89792163,138.6146909
Smith Street,Smith Street,Walkerville,South Australia,5081,true,true,Park or reserve,false,false,false,false,true,true,false,false,false,AllHours,false,false,false,false,false,-34.89435934,138.6152748
Willow Bend Reserve,Ascot Avenue,Vale Park,South Australia,5081,true,true,Park or reserve,false,false,false,true,false,false,true,false,true,DaylightHours,false,false,false,true,false,-34.88862927,138.62825008
,,,,,,,,,,,,,,,,,,,,,,,,
,,,,,,,,,,,,,,,,,,,,,,,,
Port Kenny,Flinders Highway,Port Kenny,South Australia,5671,true,true,Car park,false,false,false,false,false,false,false,false,false,AllHours,false,false,false,false,false,-33.16752699,134.6853934
,,,,,,,,,,,,,,,,,,,,,,,,
,,,,,,,,,,,,,,,,,,,,,,,,
Lloyd Street,Lloyd Street,Dimboola,Victoria,3414,true,true,Bus station,false,false,false,false,false,false,true,false,false,AllHours,false,false,false,false,false,-36.45412096,142.0263738
,,,,,,,,,,,,,,,,,,,,,,,,
,,,,,,,,,,,,,,,,,,,,,,,,
,,,,,,,,,,,,,,,,,,,,,,,,
,,,,,,,,,,,,,,,,,,,,,,,,
King Street,King Street,Rainbow,Victoria,3424,true,true,Other,false,false,false,false,false,false,true,false,false,AllHours,false,false,false,false,false,-35.89787629,141.9944402
North Park Club Rooms,Newington Road,Stawell,Victoria,3380,true,true,Sporting facility,false,false,true,false,false,false,false,false,false,Variable,false,false,false,true,false,-37.04931775,142.7746777
North Park - Centre,Ellen Street,Stawell,Victoria,3380,true,true,Park or reserve,false,false,false,false,true,true,false,false,false,DaylightHours,false,false,false,false,false,-37.05056201,142.7746582
Scallan Street Car Park,Scallan Street,Stawell,Victoria,3380,true,true,Car park,false,false,false,false,true,true,false,false,false,DaylightHours,true,false,false,true,true,-37.05464467,142.7812683
,,,,,,,,,,,,,,,,,,,,,,,,
Cato Park,Florence Street,Stawell,Victoria,3380,true,true,Park or reserve,false,false,false,false,true,true,false,false,false,DaylightHours,false,false,false,true,true,-37.05925236,142.7783133
,,,,,,,,,,,,,,,,,,,,,,,,
Central Park,Victoria Street,Stawell,Victoria,3380,true,true,Park or reserve,false,false,false,false,true,true,false,false,false,DaylightHours,false,false,false,true,true,-37.05908603,142.7752742
,,,,,,,,,,,,,,,,,,,,,,,,
,,,,,,,,,,,,,,,,,,,,,,,,
Great Western,Western Highway,Great Western,Victoria,3377,true,true,Park or reserve,false,false,false,false,false,false,true,false,false,AllHours,false,false,false,true,true,-37.15392721,142.85616066
,,,,,,,,,,,,,,,,,,,,,,,,
,,,,,,,,,,,,,,,,,,,,,,,,
,,,,,,,,,,,,,,,,,,,,,,,,
Merriwa Caravan Park,Blaxland Street,Merriwa,New South Wales,2329,true,true,Caravan park,false,false,false,false,true,true,false,false,false,AllHours,false,false,false,false,false,-32.13830428,150.3506587
,,,,,,,,,,,,,,,,,,,,,,,,
,,,,,,,,,,,,,,,,,,,,,,,,
Wilson Memorial Park,New England Highway,Murrurundi,New South Wales,2338,true,true,Park or reserve,false,false,false,false,false,false,false,false,false,AllHours,false,false,false,false,false,-31.76379666,150.8359118
Rural Transaction Centre,New England Highway,Murrurundi,New South Wales,2338,true,true,Food outlet,false,false,false,false,false,false,true,false,false,AllHours,false,false,false,false,false,-31.76372737,150.8342485
Professional Row Park,New England Highway,Murrurundi,New South Wales,2338,true,true,Park or reserve,false,false,false,false,false,false,false,false,false,AllHours,false,false,false,false,false,-31.76060884,150.8286351
,,,,,,,,,,,,,,,,,,,,,,,,
Carberry Park,Otway Street,Gundagai,New South Wales,2722,true,true,Park or reserve,false,false,false,true,false,false,true,false,false,AllHours,false,false,false,false,false,-35.06332856,148.1028118
,,,,,,,,,,,,,,,,,,,,,,,,
Newson Park,Albury & Station Streets,Harden,New South Wales,,true,true,Park or reserve,false,false,false,true,false,false,false,false,false,AllHours,false,false,false,true,true,-34.55751099,148.37071961
Harden Shopping Centre,Neill Street,Harden,New South Wales,,true,true,Shopping centre,false,false,false,true,false,false,true,false,true,Variable,true,false,false,false,true,-34.55308909,148.37018056
Coddington Park,Neill Street,Murrumburrah,New South Wales,,true,true,Park or reserve,false,false,false,true,false,false,true,false,true,AllHours,false,false,false,true,true,-34.54981465,148.3531978
Old Court House,Vernon Road,Murrumburrah,New South Wales,,true,true,Other,false,false,false,true,false,false,false,false,false,AllHours,false,false,false,true,true,-34.54827887,148.34916285
,,,,,,,,,,,,,,,,,,,,,,,,
Weil Park,Woolwich Road,Woolwich,New South Wales,2110,false,false,Park or reserve,false,false,false,false,true,true,false,false,false,Variable,false,false,false,false,false,-33.8410084,151.1674614
Gladesville Reserve,Crown Street,Henley,New South Wales,2111,true,true,Park or reserve,false,false,false,false,false,false,false,false,false,Variable,false,false,false,false,false,-33.84099785,151.137324
Boronia Park Oval,Park Road,Hunters Hill,New South Wales,2110,true,true,Park or reserve,false,false,false,true,false,false,true,false,true,Variable,false,false,false,false,false,-33.82633491,151.1382722
Buffalo Creek Reserve,Pittwater Road,Hunters Hill,New South Wales,2110,true,true,Park or reserve,false,false,false,true,false,false,false,false,false,Variable,false,false,false,false,false,-33.81604898,151.1373602
Larkin Oval,Tabratong Street,Nyngan,New South Wales,2825,true,true,Sporting facility,false,false,false,false,false,false,false,false,false,Variable,false,false,false,false,false,-31.56542585,147.1936089
Davidson Park,Pangee Street,Nyngan,New South Wales,2825,true,true,Park or reserve,false,false,false,false,true,true,false,false,false,Variable,false,false,false,false,false,-31.56259236,147.1958213
Frank Smith Oval,Terangion Street,Nyngan,New South Wales,2825,true,true,Sporting facility,false,false,false,false,false,false,false,false,false,Variable,false,false,false,false,false,-31.56992841,147.1889901
Racecourse,Hoskins Street,Nyngan,New South Wales,2825,true,true,Sporting facility,false,false,false,false,true,true,false,false,false,Variable,false,false,false,false,false,-31.57264534,147.1993535
,,,,,,,,,,,,,,,,,,,,,,,,
Glencoe Bicentennial Park,New England Highway,Glencoe,New South Wales,2365,true,true,Park or reserve,false,false,false,true,true,true,false,false,false,AllHours,false,false,false,false,false,-29.9286595,151.7235865
Severn Street,Corner Severn Street & Young Street,Deepwater,New South Wales,2371,true,true,Park or reserve,false,false,false,false,false,false,false,false,false,AllHours,false,false,false,false,false,-29.44339,151.84588
O'Donnell Street,Post Office Street,Emmaville,New South Wales,2371,true,true,Park or reserve,false,false,false,false,false,false,false,false,false,DaylightHours,false,false,false,false,false,-29.4441085,151.5989085
,,,,,,,,,,,,,,,,,,,,,,,,
Queens Park,Bazaar Street,Maryborough,Queensland,4650,false,false,Park or reserve,false,false,false,false,false,false,true,false,false,AllHours,false,false,false,true,false,-25.53730734,152.7047439
Anzac Park,Cheapside Street,Maryborough,Queensland,4650,false,false,Park or reserve,false,false,false,false,false,false,true,false,false,AllHours,false,false,false,true,false,-25.53377619,152.6873468
Rose Gardens,Wood Street,Maryborough,Queensland,4650,true,true,Park or reserve,false,false,false,false,false,false,false,false,false,AllHours,false,false,false,true,false,-25.53128104,152.6953761
Davies Car Park,Bazaar Street,Maryborough,Queensland,4650,true,true,Car park,false,false,false,false,false,false,false,false,false,AllHours,false,false,false,true,false,-25.54058813,152.7017757
McDowell Car Park,Kent Street,Maryborough,Queensland,4650,false,false,Car park,false,false,false,false,false,false,true,false,true,AllHours,false,false,false,true,false,-25.53678661,152.7014372
Pioneer Park,Aldridge Street,Maryborough,Queensland,4650,true,true,Park or reserve,false,false,false,false,true,true,false,false,false,AllHours,false,false,false,true,false,-25.52374984,152.6747464
Aquatic Centre,South Street,Maryborough,Queensland,4650,false,false,Park or reserve,false,false,false,false,false,false,true,false,false,AllHours,false,true,false,true,false,-25.54372924,152.6891669
Oakhurst Park,Royle Street,Maryborough West,Queensland,4650,true,true,Park or reserve,false,false,false,false,false,false,false,false,false,AllHours,false,false,false,true,false,-25.51980538,152.666252
Tinana Reserve,Gympie Road,Tinana,Queensland,4650,true,true,Park or reserve,false,false,false,false,false,false,false,false,false,AllHours,false,false,false,true,false,-25.54808741,152.6809351
Granville Park,Odessa Street,Granville,Queensland,4650,true,true,Park or reserve,false,false,false,false,true,true,false,false,true,AllHours,false,false,false,true,false,-25.54019087,152.7167237
Marroom Park,Esplanade,Maaroom,Queensland,4650,true,true,Park or reserve,false,false,false,false,false,false,false,false,false,AllHours,false,false,false,true,false,-25.61224146,152.8753546
,,,,,,,,,,,,,,,,,,,,,,,,
Boonooroo Point,Esplanade,Boonooroo,Queensland,4650,true,true,Park or reserve,false,false,false,false,false,false,false,false,false,AllHours,false,false,false,true,false,-25.66280641,152.9038203
,,,,,,,,,,,,,,,,,,,,,,,,
Poona Point,Boronia Drive,Poona,Queensland,4650,true,true,Park or reserve,false,false,false,false,false,false,false,false,false,AllHours,false,false,false,true,false,-25.71209264,152.9218964
Poona Boat Ramp,Owen Cox Street,Poona,Queensland,4650,true,true,Park or reserve,false,false,false,false,false,false,true,false,false,AllHours,false,false,false,true,false,-25.7226686,152.9127506
Eurong Fraser Island,Esplanade,Fraser Island,Queensland,4581,true,true,Park or reserve,false,false,false,false,false,false,false,false,false,AllHours,false,false,false,false,true,-25.50476345,153.1270452
Centenary Park,Mowen Street,Clifton,Queensland,4361,true,true,Park or reserve,false,false,false,true,false,false,false,false,false,AllHours,false,false,false,false,false,-27.93203141,151.904976
FE Logan Hall,Tooth Street,Clifton,Queensland,4361,true,true,Other,false,false,true,true,false,false,true,false,true,Variable,false,false,true,false,true,-27.92841462,151.9054042
Elsie Jones Park,Alden Street,Clifton,Queensland,4361,true,true,Park or reserve,false,false,false,false,true,true,false,false,false,AllHours,false,false,false,false,false,-27.9313651,151.9128281
,,,,,,,,,,,,,,,,,,,,,,,,
Recreation Grounds,Davenport Street,Clifton,Queensland,4361,true,true,Sporting facility,false,false,false,true,false,false,true,false,true,AllHours,false,true,false,false,true,-27.92672514,151.9143984
QCWA Jubilee Park,Tooth Street,Nobby,Queensland,4360,true,true,Park or reserve,false,false,false,false,true,true,false,false,false,AllHours,false,false,false,false,false,-27.85340241,151.9029359
,,,,,,,,,,,,,,,,,,,,,,,,
Barcaldine Railway Station,Oak Street,Barcaldine,Queensland,4725,true,true,Train station,false,false,false,false,false,false,false,false,false,Variable,false,false,false,false,false,-23.55235288,145.28467966
Shire Council Park,Beech Street,Barcaldine,Queensland,4725,true,true,Park or reserve,false,false,false,false,true,true,false,false,false,AllHours,true,false,false,false,false,-23.55411509,145.28866833
J.D. Bennett Sporting Complex - Caravan Park,Pine Street,Barcaldine,Queensland,4725,true,true,Caravan park,false,false,false,false,true,true,false,false,false,AllHours,false,false,false,false,false,-23.54983217,145.2952299
Capricorn Highway,Capricorn Highway,Barcaldine,Queensland,4725,true,true,Other,false,false,false,false,false,false,false,false,false,AllHours,false,false,false,false,false,-23.55214015,145.3078885
Lake Dyer,Christensen Road,Laidley Heights,Queensland,4341,true,true,Park or reserve,false,false,false,true,true,true,false,false,true,DaylightHours,false,true,true,false,true,-27.63425032,152.3767371
War Memorial,Gatton - Laidley Road,Forest Hill,Queensland,4342,true,true,Park or reserve,false,false,false,true,false,false,false,false,false,AllHours,false,false,false,false,false,-27.58886497,152.3569249
State Emergency Service Depot,Railway Street,Forest Hill,Queensland,4342,true,true,Park or reserve,false,false,false,false,false,false,false,false,false,AllHours,false,false,false,false,false,-27.5871218,152.3558002
Glenore Grove Park & Rural Fire Brigade,Brightview Road,Glenore Grove,Queensland,4342,true,true,Park or reserve,false,false,false,false,false,false,false,false,false,AllHours,false,false,true,false,true,-27.53043913,152.4088997
Bertrand Avenue Park,Bertrand Avenue,Kensington Grove,Queensland,4341,true,true,Park or reserve,false,false,false,true,true,true,false,false,true,AllHours,false,false,false,false,false,-27.5286964,152.4556023
Blenheim Community Park,Laidley Mount Berryman Road,Blenheim,Queensland,4341,true,true,Park or reserve,false,false,false,true,true,true,false,false,true,AllHours,false,false,false,false,false,-27.65023664,152.3298528
Centenary Park,Mulgowie Road,Thornton,Queensland,4341,true,true,Camping ground,false,false,false,true,true,true,false,false,true,AllHours,false,true,false,false,false,-27.79777525,152.3739939
William Street,William Street,Laidley,Queensland,4341,true,true,Other,false,false,false,true,true,true,false,false,true,AllHours,false,false,false,false,true,-27.63168509,152.3940016
Whites Road,Whites Road,Laidley,Queensland,4341,true,true,Park or reserve,false,false,false,true,false,false,false,false,false,AllHours,false,false,false,false,true,-27.6334776,152.3959365
Laidley,,Laidley,Queensland,4341,true,true,Park or reserve,false,false,false,true,false,false,false,false,false,AllHours,false,false,false,false,false,-27.65456935,152.4048276
Vaux Street,Vaux Street,Laidley,Queensland,4341,true,true,Park or reserve,false,false,false,true,false,false,false,false,true,AllHours,false,false,false,false,false,-27.64792126,152.3898197
Rosewood - Laidley Road,Rosewood - Laidley Road,Laidley,Queensland,4341,true,true,Park or reserve,false,false,false,true,true,true,false,false,true,AllHours,false,false,false,false,false,-27.64909511,152.3919612
Burdekin Falls Dam Road,Burdekin Falls Dam Road,Crimea,Queensland,4816,true,true,Car park,false,false,false,true,false,false,false,false,false,AllHours,false,false,false,false,true,-19.87803512,146.6338995
,,,,,,,,,,,,,,,,,,,,,,,,
Diamantina Developmental Road,Brolga Street,Quilpie,Queensland,4480,true,true,Other,false,false,false,false,true,true,false,false,false,AllHours,false,false,false,false,false,-26.61342333,144.2663188
Mount Perry,Gin Gin - Mount Perry Road,Mount Perry,Queensland,4671,true,true,Park or reserve,false,false,false,true,false,false,true,false,false,AllHours,false,true,false,true,true,-25.17418021,151.64235649
Greenmount Bi-centennial Park,Ramsay Street,Greenmount,Queensland,4359,true,true,Park or reserve,false,false,false,true,true,true,false,false,true,AllHours,false,false,false,false,false,-27.78642835,151.9052631
Rudd Selection Tourist Attraction,Steele Rudd Road,Greenmount East,Queensland,4359,true,true,Park or reserve,false,false,false,true,false,false,false,false,true,AllHours,false,false,false,false,false,-27.78576105,151.96226585
Cambooya Recreation Reserve,Lucy Street,Cambooya,Queensland,4358,true,true,Park or reserve,false,false,true,true,true,true,false,false,true,Variable,false,false,false,false,false,-27.71054936,151.8648502
Memorial Park,Ramsay Street,Cambooya,Queensland,4358,true,true,Park or reserve,false,false,false,true,false,false,true,false,true,AllHours,false,false,false,false,false,-27.70653478,151.8635252
Patterson Park,George Street,Cambooya,Queensland,4358,true,true,Park or reserve,false,false,false,true,false,false,false,false,true,AllHours,false,false,false,false,false,-27.70578325,151.8671442
Obst Park,Umbiram Road,Wyreema,Queensland,4352,true,true,Park or reserve,false,false,false,true,true,true,false,false,true,AllHours,false,false,false,false,false,-27.65662602,151.8586
Lions Park,New England Highway,Top Camp,Queensland,4350,true,true,Park or reserve,false,false,false,true,true,true,false,false,true,AllHours,false,false,false,false,false,-27.64660354,151.9347536
Farley Street,Farley Street,Stanthorpe,Queensland,4380,true,true,Other,false,false,false,false,true,true,false,false,false,AllHours,false,false,false,false,false,-28.65612669,151.9347216
,,,,,,,,,,,,,,,,,,,,,,,,
Lions Area - Fred Rogers Memorial Park,Maryland Street,Stanthorpe,Queensland,4380,true,true,Park or reserve,false,false,false,false,true,true,false,false,false,AllHours,false,false,false,false,false,-28.65982808,151.9333276
Brock Park,High Street,Stanthorpe,Queensland,4380,true,true,Park or reserve,false,false,false,false,false,false,false,false,false,AllHours,false,false,false,false,false,-28.64667123,151.9462808
Weeroona Park,Marsh Street,Stanthorpe,Queensland,4380,true,true,Park or reserve,false,false,false,false,false,false,false,false,false,AllHours,false,false,false,false,false,-28.6527618,151.9332555
,,,,,,,,,,,,,,,,,,,,,,,,
Stanthorpe Cemetery,Darcy Street,Stanthorpe,Queensland,4380,true,true,Other,false,false,false,false,false,false,false,false,false,AllHours,false,false,false,false,false,-28.645335,151.9333515
Lions Park,Wallangarra Road,Stanthorpe,Queensland,4380,true,true,Park or reserve,false,false,false,false,true,true,false,false,false,AllHours,false,false,false,false,false,-28.67598206,151.9215864
,,,,,,,,,,,,,,,,,,,,,,,,
Lions Park,New England Highway,Wallangarra,Queensland,4383,true,true,Park or reserve,false,false,false,false,true,true,false,false,false,AllHours,false,false,false,false,false,-28.92163112,151.9282749
Innot Hot Springs,Broken Gully Road,Innot Hot Springs,Queensland,4872,true,true,Park or reserve,false,false,false,false,true,true,false,false,false,AllHours,false,false,false,false,false,-17.66725352,145.236624
William Street,William Street,Herberton,Queensland,4887,true,true,Other,false,false,false,false,true,true,false,false,false,AllHours,true,false,false,false,true,-17.38327675,145.3853889
School of Arts,,Herberton,Queensland,4887,true,true,Other,false,false,false,false,false,false,false,false,false,AllHours,false,false,false,false,true,-17.38433221,145.385898
Wondecla Showgrounds,1181 Longlands Gap Road,Wondecla,Queensland,4887,true,true,Sporting facility,false,false,false,false,true,true,false,false,false,AllHours,false,false,false,false,true,-17.41138203,145.390159
Evelyn,Kennedy Highway,Evelyn,Queensland,4888,true,true,Other,false,false,false,false,false,false,false,false,false,AllHours,false,false,false,false,false,-17.4977964,145.490493
Truck Stop,Nymbool Road,Mount Garnet,Queensland,4872,true,true,Other,false,false,false,false,false,false,false,false,false,AllHours,false,false,false,false,true,-17.67456982,145.1064395
Bill Brotherton Park,Kennedy Highway,Mount Garnet,Queensland,4872,true,true,Park or reserve,false,false,false,false,false,false,false,false,false,AllHours,false,false,false,false,true,-17.67580502,145.113607
Archer Creek,Kennedy Highway,Millstream,Queensland,4888,true,true,Park or reserve,false,false,false,false,false,false,false,false,false,AllHours,false,false,false,false,true,-17.6466134,145.3481072
Ravenshoe 2,Grigg Street,Ravenshoe,Queensland,4888,true,true,Park or reserve,false,false,false,false,false,false,false,false,false,AllHours,false,false,false,false,true,-17.60775209,145.4829862
Ravenshoe 1,Ascham Street,Ravenshoe,Queensland,4888,true,true,Park or reserve,false,false,false,false,false,false,true,false,false,AllHours,false,false,false,false,true,-17.6095437,145.4840562
Cemetery,Oxley Road,Pinwernying,Western Australia,6317,true,true,Other,false,false,false,false,false,false,false,false,false,Variable,false,false,false,false,false,-33.66841224,117.5477211
All Ages Playground,Clive Street,Katanning,Western Australia,6317,true,true,Park or reserve,false,false,false,true,false,true,false,false,false,DaylightHours,false,false,false,false,false,-33.69662833,117.5484062
Town Hall,Austral Terrace,Katanning,Western Australia,6317,true,true,Other,false,false,false,false,true,false,false,false,false,Variable,false,false,false,false,false,-33.68963536,117.5538829
Bernard Park,Minson Avenue,Northam,Western Australia,6401,true,true,Park or reserve,false,false,false,false,true,true,false,false,false,AllHours,false,false,false,false,false,-31.65126801,116.6720358
Apex Park,Broome Terrace,Northam,Western Australia,6401,true,true,Park or reserve,false,false,false,false,true,true,false,false,false,AllHours,false,false,false,false,false,-31.65456374,116.666147
Visitors Centre,Minson Avenue,Northam,Western Australia,6401,true,true,Other,false,false,false,false,false,false,true,false,false,Variable,false,true,false,false,false,-31.65225851,116.6715496
Capricorn Highway,Capricorn Highway,Westwood,Queensland,4702,false,false,Other,false,false,false,true,false,false,true,false,false,AllHours,false,false,false,false,false,-23.62202963,150.1561373
Institute,Main Street,Cowell,South Australia,5602,true,true,Other,false,false,false,false,true,true,false,false,false,AllHours,false,false,false,false,true,-33.68456522,136.9267068
Foreshore (Lions Park),Main Street,Cowell,South Australia,5602,true,true,Park or reserve,false,false,false,false,true,true,false,false,false,AllHours,false,false,false,true,true,-33.68506883,136.9270368
,,,,,,,,,,,,,,,,,,,,,,,,
,,,,,,,,,,,,,,,,,,,,,,,,
,,,,,,,,,,,,,,,,,,,,,,,,
Recreation Centre,Memorial Avenue,Dowerin,Western Australia,6461,true,true,Sporting facility,false,false,false,false,false,false,false,false,false,Variable,false,false,false,false,false,-31.19124307,117.0374256
Hockey Field,Memorial Avenue,Dowerin,Western Australia,6461,true,true,Sporting facility,false,false,false,false,false,false,false,false,false,AllHours,false,false,false,false,false,-31.1902573,117.038466
,,,,,,,,,,,,,,,,,,,,,,,,
Football Oval,Off East Street,Dowerin,Western Australia,6461,true,true,Sporting facility,false,false,false,false,false,false,false,false,false,Variable,false,false,false,false,false,-31.19047639,117.036166
Town Beach,Church Street,Dongara,Western Australia,6525,true,true,Other,false,false,false,true,true,true,false,false,true,AllHours,false,true,false,true,false,-29.25224117,114.9209461
Town Park,17 Waldeck Sreet,Dongara,Western Australia,6525,true,true,Park or reserve,false,false,false,true,true,true,false,false,true,AllHours,false,false,true,true,false,-29.25088103,114.93136538
Port Denison Marina,Point Leander Drive,Port Denison,Western Australia,6525,true,true,Other,false,false,false,true,false,false,false,false,true,AllHours,false,false,true,false,false,-29.27143829,114.9208919
Recreational Fishermans Boat Ramp,Point Leander Drive,Port Denison,Western Australia,6525,true,true,Park or reserve,false,false,false,true,false,false,true,false,true,AllHours,false,false,true,false,false,-29.27516353,114.9190702
South Beach,White Tops Road,Port Denison,Western Australia,6525,true,true,Park or reserve,false,false,false,true,true,true,false,false,true,AllHours,false,true,false,true,true,-29.28193418,114.9196957
Dongara Pavillion ,38 Waldeck Street,Dongara,Western Australia,6525,false,false,Park or reserve,false,false,false,true,false,false,true,false,false,Variable,false,false,true,false,false,-29.24874766,114.9318885
Main Hall,Victoria Road,Mingenew,Western Australia,6522,true,true,Other,false,false,false,false,true,true,false,false,false,AllHours,false,false,false,false,true,-29.1926419,115.4417187
Tourist Centre,Victoria Street,Mingenew,Western Australia,6522,true,true,Car park,false,false,false,true,true,true,false,false,false,AllHours,true,false,false,false,true,-29.19083776,115.4423394
,,,,,,,,,,,,,,,,,,,,,,,,
,,,,,,,,,,,,,,,,,,,,,,,,
Burke Park,Wright Place,Clare,South Australia,5453,true,true,Car park,false,false,false,true,true,true,false,false,true,AllHours,false,false,false,true,true,-33.83179632,138.6108747
Lennon Street,Lennon Street,Clare,South Australia,5453,false,false,Park or reserve,false,false,false,true,true,true,false,false,false,AllHours,true,false,false,true,true,-33.83605883,138.6152192
Melrose Park,Phoenix Avenue,Clare,South Australia,5453,false,false,Park or reserve,false,false,false,true,false,false,false,false,false,AllHours,false,false,false,true,true,-33.82485597,138.6137436
Clare Oval,160 Main North Road,Clare,South Australia,5453,true,true,Sporting facility,false,false,false,true,false,false,true,false,true,AllHours,true,false,false,true,true,-33.83861,138.61566
Pioneer Park,Richardson Avenue,Clare,South Australia,5453,false,false,Park or reserve,false,false,false,true,false,false,true,false,false,AllHours,false,false,false,true,true,-33.82898196,138.6089074
,,,,,,,,,,,,,,,,,,,,,,,,
Gilbert River Park,Oxford Terrace,Riverton,South Australia,5412,false,false,Park or reserve,false,false,false,true,false,false,true,false,false,AllHours,false,false,false,true,true,-34.15764627,138.7525701
Community Hall,Elizabeth Street,Riverton,South Australia,5412,true,true,Car park,false,false,false,true,false,false,true,false,true,AllHours,false,false,false,true,true,-34.15973967,138.7480948
,,,,,,,,,,,,,,,,,,,,,,,,
Winkler Park,Barrier Highway,Saddleworth,South Australia,5413,true,true,Park or reserve,false,false,false,true,false,false,false,false,false,AllHours,false,false,false,true,true,-34.09700221,138.7756503
Recreation Ground,,Stockport,South Australia,5410,true,true,Sporting facility,false,false,false,true,false,false,false,false,false,AllHours,false,false,false,true,true,-34.33665953,138.7334187
,,,,,,,,,,,,,,,,,,,,,,,,
,,,,,,,,,,,,,,,,,,,,,,,,
,,,,,,,,,,,,,,,,,,,,,,,,
Stuart Highway,Stuart Highway,Elliott,Northern Territory,0862,true,true,Park or reserve,false,false,false,false,false,false,false,false,false,AllHours,false,false,false,false,false,-17.55477716,133.5465409
Newell Highway,Newell Highway,Peak Hill,New South Wales,2869,true,true,Other,false,false,false,false,true,true,false,false,false,AllHours,false,false,false,false,false,-32.72236532,148.189688
,,,,,,,,,,,,,,,,,,,,,,,,
,,,,,,,,,,,,,,,,,,,,,,,,
Cooke Park,Corner of Short & Welcome Streets,Parkes,New South Wales,2870,true,true,Park or reserve,false,false,false,false,true,true,false,false,false,DaylightHours,false,false,false,false,false,-33.13958154,148.1745389
,,,,,,,,,,,,,,,,,,,,,,,,
Kelly Reserve,Corner of Thomas Street & Newell Highway,Parkes,New South Wales,2870,true,true,Park or reserve,false,false,false,true,true,true,false,true,true,DaylightHours,false,false,false,true,true,-33.12484351,148.1731207
Lions Park,Orange Road,Parkes,New South Wales,2870,true,true,Park or reserve,false,false,false,true,true,true,false,false,true,DaylightHours,false,false,true,true,true,-33.14216038,148.1915707
,,,,,,,,,,,,,,,,,,,,,,,,
Renmark Avenue,Renmark Avenue,Renmark,South Australia,5341,true,true,Other,false,false,false,true,true,true,false,false,true,Variable,true,false,false,true,true,-34.17239651,140.7493551
James Avenue,James Ave,Renmark,South Australia,5341,true,true,Other,false,false,false,true,false,false,true,false,true,Variable,true,false,false,false,true,-34.17000093,140.749949
Lions Park,Patey Drive,Renmark,South Australia,5341,true,true,Park or reserve,false,false,false,true,false,false,false,false,true,AllHours,false,false,false,false,false,-34.17820176,140.7658224
Plush's Bend,Twenty-Third Street,Renmark,South Australia,5341,true,true,Camping ground,false,false,false,false,false,false,false,false,false,AllHours,false,false,false,false,false,-34.21558425,140.7556094
Pauline Street,Pauline Street,Paringa,South Australia,5340,true,true,Car park,false,false,false,true,false,false,false,false,true,AllHours,false,false,false,false,true,-34.18029997,140.7836836
Bert Dix Park,Lock 5 Road,Paringa,South Australia,5340,true,true,Park or reserve,false,false,false,true,false,false,false,false,false,AllHours,false,false,false,false,false,-34.1814115,140.7777294
Cemetery,Arumpo Street,Renmark,South Australia,5341,true,true,Other,false,false,false,true,false,false,false,false,true,AllHours,false,false,false,false,false,-34.17210787,140.7230929
Price Park,Sturt Highway,Renmark South,South Australia,5341,true,true,Park or reserve,false,false,false,false,false,false,true,false,false,AllHours,false,false,false,false,false,-34.20709402,140.70172531
,,,,,,,,,,,,,,,,,,,,,,,,
Geranium,,Geranium,South Australia,5301,true,true,Sporting facility,false,false,false,false,false,false,false,false,false,AllHours,false,false,false,false,false,-35.38502379,140.1598347
,,,,,,,,,,,,,,,,,,,,,,,,
Parilla,Off Mallee Highway,Parilla,South Australia,5303,false,false,Other,false,false,false,true,false,false,true,false,true,AllHours,true,true,false,false,true,-35.2972048,140.6676496
,,,,,,,,,,,,,,,,,,,,,,,,
,,,,,,,,,,,,,,,,,,,,,,,,
Monash Park,Bolton Street,Jerilderie,New South Wales,2716,true,true,Park or reserve,false,false,false,false,false,false,true,false,false,Variable,false,false,false,false,false,-35.35833414,145.7290145
Macquarie Park,Oxley Highway,Warren,New South Wales,2824,true,true,Park or reserve,false,false,false,false,true,true,false,false,false,Variable,false,false,false,false,false,-31.69815648,147.8387323
Oxley Park,Oxley Highway,Warren,New South Wales,2824,true,true,Park or reserve,false,false,false,false,true,true,false,false,false,Variable,false,false,false,false,false,-31.69616094,147.8400133
Carter Oval,Strafford Street,Warren,New South Wales,2824,true,true,Sporting facility,false,false,false,false,false,false,false,false,false,Variable,false,false,false,false,false,-31.69768847,147.8309966
Racecourse,Canonba Warren Road,Warren,New South Wales,2824,true,true,Sporting facility,false,false,false,false,false,false,false,false,false,Variable,false,false,false,false,false,-31.68647879,147.8098135
Triton Place,Triton Place,Sunset Beach,Western Australia,6530,true,true,Park or reserve,false,false,false,true,true,true,false,false,false,Variable,false,true,false,false,true,-28.72095949,114.6194783
,,,,,,,,,,,,,,,,,,,,,,,,
Spalding Park,Chapman Road,Spalding,Western Australia,6530,true,true,Park or reserve,false,false,false,false,true,true,false,false,false,AllHours,false,false,true,false,true,-28.72932854,114.6285287
Eadon-Clarke Park,Off Green Street,Spalding,Western Australia,6530,true,true,Sporting facility,false,false,false,false,false,false,false,false,false,AllHours,false,false,false,false,false,-28.73242027,114.62942476
Eadon-Clarke Oval,Green Street,Spalding,Western Australia,6530,true,true,Sporting facility,false,false,false,false,false,false,true,false,false,Variable,false,true,false,false,false,-28.73130153,114.63184376
Rundle Park,Kempton Street,Bluff Point,Western Australia,6530,true,true,Park or reserve,false,false,false,true,true,true,false,false,true,Variable,false,true,true,false,true,-28.74637213,114.61842471
Apex Memorial Park,Chapman Road,Geraldton,Western Australia,6530,true,true,Park or reserve,false,false,false,true,false,false,false,false,false,Variable,false,false,false,true,true,-28.76548141,114.6169001
Art Gallery,Off Durlacher Street,Geraldton,Western Australia,6530,true,true,Car park,false,false,false,true,true,true,false,false,true,Variable,false,false,false,false,false,-28.77375329,114.611402
Foreshore Beach,Off Marine Tce / Gregory St,Geraldton,Western Australia,6530,true,true,Park or reserve,false,false,false,false,false,false,true,false,false,Variable,false,false,false,false,false,-28.77547349,114.60512157
Pages Beach,Marine Terrace,West End,Western Australia,6530,true,true,Park or reserve,false,false,false,false,false,false,true,false,false,AllHours,false,true,false,true,true,-28.77737738,114.5839843
,,,,,,,,,,,,,,,,,,,,,,,,
Back Beach,Willcock Drive,Beachlands,Western Australia,6530,true,true,Park or reserve,false,false,false,true,false,false,true,false,true,AllHours,false,true,false,true,true,-28.7946841,114.6131267
Recreation Ground - Grandstand,Augustus Street,Beachlands,Western Australia,6530,true,true,Sporting facility,false,false,false,false,false,false,false,false,false,AllHours,false,false,false,false,false,-28.78081272,114.60260953
Recreation Ground - South,Augustus Street,Beachlands,Western Australia,6530,true,true,Sporting facility,false,false,false,false,false,false,false,false,false,AllHours,false,false,false,false,false,-28.78173326,114.603325
Maitland Park,Maitland Street,Geraldton,Western Australia,6530,true,true,Park or reserve,false,false,false,false,false,false,true,false,false,Variable,false,false,false,false,true,-28.77832465,114.6113096
Wonthella Athletics,Off Pass St / Eighth St,Wonthella,Western Australia,6530,true,true,Sporting facility,false,false,false,false,false,false,false,false,false,DaylightHours,false,false,false,false,false,-28.77059036,114.6285779
Wonthella Tennis,Eighth Street,Wonthella,Western Australia,6530,true,true,Sporting facility,true,false,false,false,false,false,true,false,false,DaylightHours,false,true,false,false,false,-28.76928763,114.63121524
Wonthella Hockey,Eighth Street,Wonthella,Western Australia,6530,true,true,Sporting facility,false,false,false,false,false,false,true,false,false,AllHours,false,false,true,false,false,-28.76901843,114.63422819
Wonthella Football Ground,Eighth Street,Wonthella,Western Australia,6530,true,true,Sporting facility,true,false,false,false,false,false,false,false,false,DaylightHours,false,false,false,false,false,-28.7694589,114.63570846
Wonthella Oval,Flores Road,Wonthella,Western Australia,6530,true,true,Sporting facility,true,false,false,false,false,false,false,false,false,DaylightHours,false,false,true,false,false,-28.77025745,114.63485222
Utakarra Oval,Utakarra Road,Utakarra,Western Australia,6530,true,true,Sporting facility,false,false,false,false,false,false,false,false,false,AllHours,false,false,false,false,false,-28.77713415,114.64246725
,,,,,,,,,,,,,,,,,,,,,,,,
Bus Parking Area,Barrier Highway,Burra,South Australia,5417,true,true,Bus station,false,false,false,false,true,true,false,false,false,AllHours,false,false,false,false,false,-33.67982416,138.937206
Burra Creek,Bridge Terrace,Burra,South Australia,5417,true,true,Caravan park,false,false,false,false,true,true,false,false,false,DaylightHours,false,false,false,false,false,-33.6796236,138.9378745
Sporting Oval,Smelts Road,Burra,South Australia,5417,true,true,Sporting facility,false,false,false,false,false,false,false,false,false,AllHours,false,false,false,false,false,-33.67654848,138.9407322
,,,,,,,,,,,,,,,,,,,,,,,,
(Town Hall) Burra-Eudunda Road,Burra-Eudunda Road,Eudunda,South Australia,5374,true,true,Other,false,false,false,false,true,true,false,false,false,AllHours,false,false,false,false,false,-34.17068864,139.0843131
Town Gardens - Centenary Park,Burra-Eudunda Road,Eudunda,South Australia,5374,true,true,Park or reserve,false,false,false,false,false,false,false,false,false,AllHours,false,false,false,false,false,-34.17320224,139.0838044
Opposite Eudunda Hotel/Motel,Cnr Gunn & Thiele Hwy,Eudunda,South Australia,5374,true,true,Park or reserve,false,false,false,false,true,true,false,false,false,AllHours,false,false,false,false,false,-34.17756843,139.08406591
,,,,,,,,,,,,,,,,,,,,,,,,
,,,,,,,,,,,,,,,,,,,,,,,,
,,,,,,,,,,,,,,,,,,,,,,,,
,,,,,,,,,,,,,,,,,,,,,,,,
,,,,,,,,,,,,,,,,,,,,,,,,
Silo Rd Toilets - Near Town Hall,Silo Road,Farrell Flat,South Australia,5416,true,true,Other,false,false,false,false,false,false,false,false,false,AllHours,false,false,false,false,false,-33.82912956,138.79657639
Lions Park,Gregory Highway,Capella,Queensland,4723,true,true,Park or reserve,false,false,false,false,false,false,false,false,false,AllHours,false,false,false,false,false,-23.08501716,148.0225418
Amaroo Park,Burn Street,Capella,Queensland,4723,true,true,Park or reserve,false,false,false,false,false,false,false,false,false,AllHours,false,false,false,false,false,-23.08409299,148.0260879
,,,,,,,,,,,,,,,,,,,,,,,,
Carbeen Street Sports Complex,Off Baden Powell Drive,Tieri,Queensland,4709,true,true,Sporting facility,false,false,false,false,false,false,false,false,false,AllHours,false,false,false,false,false,-23.03477084,148.3405004
Sports Oval,Capricorn Street,Tieri,Queensland,4709,true,true,Sporting facility,false,false,false,false,false,false,false,false,false,AllHours,false,false,false,false,false,-23.03604942,148.350916
Heritage Park,Market Street,Balranald,New South Wales,2715,true,true,Park or reserve,false,false,false,false,true,true,false,false,false,AllHours,false,false,false,false,false,-34.64045275,143.5648107
Senior Citizens Centre,Sturt Highway,Balranald,New South Wales,2715,true,true,Shopping centre,false,false,false,false,false,false,false,false,false,AllHours,false,false,false,false,false,-34.63927895,143.5622796
Greenham Park,Church Street,Balranald,New South Wales,2715,true,true,Park or reserve,false,false,false,false,false,false,false,false,false,AllHours,false,false,false,false,false,-34.63550066,143.5626831
Lions Park,Sturt Highway,Balranald,New South Wales,2715,true,true,Park or reserve,false,false,false,false,false,false,false,false,false,AllHours,false,false,false,false,false,-34.63300635,143.5549432
Tower Park,Murray Street,Euston,New South Wales,2737,true,true,Park or reserve,false,false,false,false,true,true,false,false,false,AllHours,false,false,false,false,false,-34.57760608,142.7446026
Euston Recreation Reserve,Sturt Highway,Euston,New South Wales,2737,true,true,Park or reserve,false,false,false,false,false,false,false,false,false,AllHours,false,false,false,false,false,-34.57525848,142.7381466
Lake Benanee,Sturt Highway,Euston,New South Wales,2737,false,false,Park or reserve,false,false,false,false,false,false,false,false,false,AllHours,false,false,false,false,false,-34.52090056,142.87785311
,,,,,,,,,,,,,,,,,,,,,,,,
Bronte Park - South,Bronte Road,Bronte,New South Wales,2024,true,true,Park or reserve,false,false,false,false,false,false,false,false,false,Variable,false,false,false,false,false,-33.90501712,151.2687885
Bronte Park - North,Bronte Road,Bronte,New South Wales,2024,true,true,Park or reserve,false,false,false,false,true,true,false,false,false,Variable,false,false,false,false,false,-33.90350658,151.26790362
Tamarama Park,Tamarama Marine Drive,Tamarama,New South Wales,2026,true,true,Park or reserve,false,false,false,false,true,true,false,false,false,Variable,false,false,false,false,false,-33.8998924,151.26934052
Marks Park,Marks Lane,Tamarama,New South Wales,2026,true,true,Park or reserve,false,false,false,false,false,false,false,false,false,Variable,false,false,false,false,false,-33.89880944,151.2745457
South Bondi Park,Notts Avenue,Bondi Beach,New South Wales,2026,true,true,Park or reserve,false,false,false,false,false,false,false,false,false,DaylightHours,false,false,false,false,false,-33.894181,151.273677
,,,,,,,,,,,,,,,,,,,,,,,,
North Bondi Park,Campbell Parade,Bondi Beach,New South Wales,2026,true,true,Park or reserve,false,false,false,false,true,true,false,false,false,Variable,false,false,false,false,false,-33.88999144,151.28058293
Waverley Park,Bondi Road,Bondi Junction,New South Wales,2022,true,true,Park or reserve,false,false,false,false,false,false,true,false,false,Variable,false,false,false,false,false,-33.89446748,151.2579815
Brown Street,Brown Street,Caramut,Victoria,3274,true,true,Other,false,false,false,false,false,false,false,false,false,AllHours,false,false,false,false,false,-37.9577,142.51896
Hawkesdale,Penshurst-Warrnambool Road,Hawkesdale,Victoria,3287,true,true,Sporting facility,false,false,false,false,false,false,true,false,false,AllHours,false,false,false,false,false,-38.10455352,142.3218811
,,,,,,,,,,,,,,,,,,,,,,,,
Market Square Mortlake,Hamilton Highway,Mortlake,Victoria,3272,true,true,Park or reserve,false,false,false,true,true,true,false,false,true,AllHours,true,false,false,false,false,-38.08084541,142.8082657
Mortlake Tea Tree Lake,Jamieson Street,Mortlake,Victoria,3272,true,true,Park or reserve,false,false,false,false,false,false,false,false,false,AllHours,false,false,false,false,false,-38.082456,142.808716
Nullawarre,Henrys Sawmill Road,Nullawarre,Victoria,3268,true,true,Park or reserve,false,false,false,true,false,false,true,false,true,AllHours,true,false,false,false,false,-38.46761397,142.7457699
,,,,,,,,,,,,,,,,,,,,,,,,
,,,,,,,,,,,,,,,,,,,,,,,,
King George Square - Bait Shed,Gipps Street,Port Fairy,Victoria,3284,true,true,Food outlet,false,false,false,true,false,false,true,false,true,AllHours,false,false,false,false,false,-38.38783801,142.2405555
Port Fairy East Beach,Beach Street,Port Fairy,Victoria,3284,true,true,Park or reserve,false,false,false,false,false,false,true,false,false,AllHours,false,false,false,false,false,-38.37899673,142.2443015
,,,,,,,,,,,,,,,,,,,,,,,,
Rogers Place,Battery Lane,Port Fairy,Victoria,3284,true,true,Park or reserve,false,false,false,true,false,false,true,false,false,AllHours,true,true,false,false,false,-38.3864144,142.2425784
Martins Point Port Fairy,Gipps Street,Port Fairy,Victoria,3284,true,true,Park or reserve,false,false,false,true,true,true,false,false,false,AllHours,false,false,false,false,false,-38.390564,142.242916
,,,,,,,,,,,,,,,,,,,,,,,,
Hopkins Falls,Hopkins Falls Road,Wangoom,Victoria,3279,true,true,Park or reserve,false,false,false,true,false,false,false,false,false,AllHours,false,false,false,false,false,-38.33245299,142.6179075
Yambuk  Riverside Park,Princes Highway,Yambuk,Victoria,3285,false,false,Park or reserve,false,false,false,false,false,false,true,false,false,AllHours,false,false,false,false,false,-38.3145612,142.0640778
Sunnyside Park,Olga Avenue,Horsham,Victoria,3400,true,true,Park or reserve,false,false,false,false,false,false,false,false,false,AllHours,false,false,false,false,false,-36.71025175,142.2135437
Dudley W Cornell Park,Gertrude Street,Horsham,Victoria,3400,true,true,Sporting facility,false,false,false,false,false,false,false,false,false,AllHours,false,false,false,false,false,-36.70306918,142.2025871
May Park,Baillie Street,Horsham,Victoria,3400,true,true,Park or reserve,false,false,false,true,false,false,true,false,false,AllHours,false,false,true,true,true,-36.71163573,142.1965016
,,,,,,,,,,,,,,,,,,,,,,,,
Weir Park,,Horsham,Victoria,3400,false,false,Park or reserve,false,false,false,true,false,false,true,false,false,AllHours,false,false,true,true,true,-36.7300622,142.1758183
Rowing Club,,Horsham,Victoria,3400,true,true,Sporting facility,false,false,false,true,true,true,false,false,false,AllHours,false,false,true,true,true,-36.72507306,142.1953002
Horsham Sawyer Park,Hocking Street,Horsham,Victoria,3400,true,true,Park or reserve,false,false,false,false,false,false,true,false,false,AllHours,false,false,true,true,true,-36.72277882,142.200471
Urban City Oval,Baker Street,Horsham,Victoria,3400,true,true,Sporting facility,false,false,false,false,false,false,false,false,false,AllHours,false,false,true,true,true,-36.72081239,142.2004346
Roberts Avenue,Roberts Avenue,Horsham,Victoria,3400,true,true,Shopping centre,false,false,false,true,true,true,false,false,true,AllHours,false,false,true,true,true,-36.71414836,142.1999975
Safeway Car Park,Wimmera Highway,Horsham,Victoria,3400,true,true,Car park,false,false,false,false,true,true,false,false,false,AllHours,false,false,false,false,false,-36.71629691,142.196793
Botanical Gardens,Baker Street,Horsham,Victoria,3400,true,true,Park or reserve,false,false,false,false,false,false,true,false,false,AllHours,false,false,false,false,false,-36.72219622,142.1963926
Green Lake,Western Highway,Bungalally,Victoria,3401,true,true,Park or reserve,false,false,false,false,true,true,false,false,false,AllHours,false,false,false,false,false,-36.78727205,142.2988824
Haven,Henty Highway,Haven,Victoria,3401,true,true,Park or reserve,false,false,false,true,false,false,false,false,true,AllHours,true,false,true,true,true,-36.75832136,142.19268158
,,,,,,,,,,,,,,,,,,,,,,,,
Jung North Road,Jung North Road,Jung,Victoria,3399,true,true,Park or reserve,false,false,false,false,false,false,true,false,false,AllHours,false,false,false,false,false,-36.60882318,142.36182553
,,,,,,,,,,,,,,,,,,,,,,,,
Hawker,Elder Terrace,Hawker,South Australia,5434,true,true,Car park,false,false,false,false,false,false,true,false,false,AllHours,false,false,false,false,false,-31.88748757,138.42133309
Hansen Street,Hansen Street,Myponga,South Australia,5202,true,true,Other,false,false,false,true,false,false,false,false,false,AllHours,false,false,false,false,true,-35.39079943,138.462675
Finnis Vale Drive,Finnis Vale Drive,Second Valley,South Australia,5204,true,true,Other,false,false,false,true,false,false,true,false,true,AllHours,false,false,false,false,true,-35.5115829,138.2175344
Flinders Drive,Lot 11 Flinders Drive,Cape Jervis,South Australia,5204,true,true,Car park,false,false,false,true,false,false,true,false,false,AllHours,false,false,false,false,false,-35.6064603,138.0945348
Lot 100 Main South Road,Main South Road,Delamere,South Australia,5204,true,true,Other,false,false,false,true,false,false,true,false,false,AllHours,true,false,false,false,true,-35.56442,138.20559
Edwards Avenue,12 Edwards Avenue,Normanville,South Australia,5204,true,true,Other,false,false,false,true,true,true,false,false,true,AllHours,false,false,true,false,true,-35.4468485,138.3191325
Gold Coast Drive,Gold Coast Drive,Carrickalinga,South Australia,5204,true,true,Other,false,false,false,true,false,false,false,false,false,AllHours,false,false,false,false,true,-35.42583907,138.3216176
Inman Valley Road,Lot 266 Inman Valley Road,Bald Hills,South Australia,5203,true,true,Other,false,false,false,true,false,false,false,false,false,AllHours,false,false,false,false,true,-35.49400972,138.4575062
Essington Lewis Drive,Essington Lewis Drive,Rapid Bay,South Australia,5204,true,true,Other,false,false,false,true,false,false,true,false,false,AllHours,false,false,false,false,true,-35.52520127,138.1900831
Pingrup  Pavilion,"Gaby Street, Pingrup ",Pingrup,Western Australia,6343,true,true,Sporting facility,false,false,false,false,true,true,false,false,false,AllHours,false,false,false,false,false,-33.53978289,118.5530026
Pingrup Town Hall,Sanderson Street,Pingrup,Western Australia,6343,true,true,Other,false,false,false,false,true,true,false,false,false,AllHours,false,false,false,false,false,-33.5343985,118.508072
Nyabing Town Hall - Nyabing ,Richmond Street,Nyabing,Western Australia,6341,true,true,Other,false,false,false,false,true,true,false,false,false,AllHours,false,false,false,false,false,-33.54135744,118.1483489
Nyabing Sports Pavilion,Martin Street,Nyabing,Western Australia,6341,true,true,Sporting facility,false,false,false,false,true,true,false,false,false,AllHours,false,false,false,false,false,-33.54425445,118.1482625
,,,,,,,,,,,,,,,,,,,,,,,,
Shire Hall,Mc Alister Street,Darlington Point,New South Wales,2706,true,true,Sporting facility,false,false,false,false,false,false,true,false,false,Variable,false,false,false,false,false,-34.57082581,145.9972977
Lions Park,Darlington Street,Darlington Point,New South Wales,2706,true,true,Park or reserve,false,false,false,false,false,false,false,false,false,AllHours,false,false,false,false,false,-34.5668051,146.0082296
,,,,,,,,,,,,,,,,,,,,,,,,
Lions Park,Kidman Way,Coleambally,New South Wales,2707,true,true,Park or reserve,false,false,false,false,true,true,false,false,false,AllHours,false,false,false,false,false,-34.79747481,145.8793127
,,,,,,,,,,,,,,,,,,,,,,,,
Apex Park,Rupert Street,Oberon,New South Wales,2787,true,true,Park or reserve,false,false,false,false,true,true,false,false,false,Variable,false,false,false,true,false,-33.70309393,149.8469801
Cook Park,Oberon Street,Oberon,New South Wales,2787,true,true,Park or reserve,false,false,false,false,true,true,false,true,false,Variable,true,false,false,true,false,-33.70371567,149.8563667
Miss Wilson Park,,Oberon,New South Wales,2787,true,true,Park or reserve,false,false,false,false,false,false,false,false,false,Variable,false,false,false,false,false,-33.70404125,149.871172
,,,,,,,,,,,,,,,,,,,,,,,,
Memorial Gardens,Lawrie Terrace,Waikerie,South Australia,5330,true,true,Park or reserve,false,false,false,false,false,false,false,false,false,AllHours,false,false,false,false,false,-34.18183936,139.9841267
River Park,,Waikerie,South Australia,5330,true,true,Park or reserve,false,false,false,false,false,false,false,false,false,AllHours,false,false,false,false,false,-34.17496146,139.9846733
,,,,,,,,,,,,,,,,,,,,,,,,
,,,,,,,,,,,,,,,,,,,,,,,,
,,,,,,,,,,,,,,,,,,,,,,,,
,,,,,,,,,,,,,,,,,,,,,,,,
,,,,,,,,,,,,,,,,,,,,,,,,
,,,,,,,,,,,,,,,,,,,,,,,,
Aquatic Centre,Scenic Drive,Loxton West,South Australia,5333,true,true,Sporting facility,false,false,false,false,false,false,false,false,false,Variable,false,false,false,false,false,-34.44977468,140.5622431
Lions Park,,Loxton West,South Australia,5333,true,true,Park or reserve,false,false,false,false,false,false,false,false,false,AllHours,false,false,false,false,false,-34.44775396,140.5506421
Apex Park,Off Scenic Drive,Loxton West,South Australia,5333,true,true,Park or reserve,false,false,false,false,false,false,false,false,false,AllHours,false,false,false,false,false,-34.44951268,140.5656112
,,,,,,,,,,,,,,,,,,,,,,,,
Hurstville Oval,Dora Street,Hurstville,New South Wales,2220,true,true,Sporting facility,false,false,false,false,true,true,false,true,false,Variable,false,false,false,false,false,-33.96103907,151.0992037
Oatley Park,Mallard Drive,Oatley,New South Wales,2223,true,true,Park or reserve,false,false,false,false,false,false,false,false,false,Variable,false,false,false,false,false,-33.97991748,151.0627819
Oatley Park,Christensen Crescent,Oatley,New South Wales,2223,true,true,Park or reserve,false,false,false,false,false,false,false,false,false,Variable,false,true,false,false,false,-33.98195267,151.0613082
Woodville Park,Hudson Street,Hurstville,New South Wales,2220,true,true,Park or reserve,false,false,false,false,true,true,false,false,false,Variable,false,false,false,false,false,-33.96616202,151.108818
Gifford Park,Young Street,Penshurst,New South Wales,2222,true,true,Park or reserve,false,false,false,false,false,false,false,false,false,AllHours,false,false,false,false,false,-33.95682851,151.0823611
Penshurst Park,Cambridge Street,Penshurst,New South Wales,2222,true,true,Park or reserve,false,false,false,false,true,true,false,false,false,AllHours,false,false,false,false,false,-33.96139005,151.0899403
,,,,,,,,,,,,,,,,,,,,,,,,
Beverly Hills Park,Vanessa Street,Beverly Hills,New South Wales,2209,true,true,Sporting facility,false,false,false,false,false,false,true,false,false,Variable,false,false,false,false,false,-33.94489808,151.0884663
Peakhurst Park 2,Gover Street,Peakhurst,New South Wales,2210,true,true,Sporting facility,false,false,false,false,false,false,false,false,false,AllHours,false,false,false,false,false,-33.95732003,151.0539392
Peakhurst Park 1,Gover Street,Peakhurst,New South Wales,2210,true,true,Sporting facility,false,false,false,false,false,false,false,false,false,Variable,false,false,false,false,false,-33.95781127,151.055413
Olds Park 2,Holley Road,Mortdale,New South Wales,2223,true,true,Park or reserve,false,false,false,false,true,true,false,true,false,Variable,false,false,false,false,false,-33.95907432,151.0730977
Olds Park 1,Forest Road,Mortdale,New South Wales,2223,true,true,Park or reserve,false,false,false,false,false,false,false,false,false,DaylightHours,false,false,false,false,false,-33.96054804,151.0758346
Gannons Park,Forest Road,Peakhurst,New South Wales,2210,true,true,Park or reserve,false,false,false,false,false,false,false,false,false,Variable,false,false,false,false,false,-33.96833809,151.053378
Taylor Reserve,Lime Kiln Road,Lugarno,New South Wales,2210,true,true,Park or reserve,false,false,false,false,false,false,false,false,false,AllHours,false,false,false,false,false,-33.98742674,151.0474132
,,,,,,,,,,,,,,,,,,,,,,,,
Rasdall Park,Bryant Street,Narwee,New South Wales,2209,true,true,Park or reserve,false,false,false,false,false,false,false,false,false,AllHours,false,false,false,false,false,-33.9498809,151.0739397
Evatt Park,Forest Road,Lugarno,New South Wales,2210,true,true,Park or reserve,false,false,false,false,false,false,false,false,false,DaylightHours,false,false,false,false,false,-33.97886499,151.0429217
Bexley North Library,Shaw Street,Bexley North,New South Wales,2207,false,false,Car park,false,false,false,false,false,false,true,true,true,Variable,true,false,false,false,true,-33.93807585,151.1118844
Bexley Park,Henderson Road,Bexley,New South Wales,2207,true,true,Sporting facility,false,false,false,false,false,false,false,false,false,Variable,false,false,false,false,false,-33.9511763,151.1182211
 Bexley Car Park,Forest  Road,Bexley,New South Wales,2207,false,false,Car park,false,false,false,true,false,false,true,false,true,Variable,false,false,false,true,true,-33.95028625,151.1256612
Gardiner Park,Wolli Creek Road,Banksia,New South Wales,2216,true,true,Park or reserve,false,false,false,false,false,false,false,false,false,Variable,false,false,false,false,false,-33.94348669,151.13431002
Guild Theatre,Walz Street,Rockdale,New South Wales,2216,true,true,Other,false,false,false,true,false,false,false,false,false,Variable,false,false,false,false,false,-33.95146092,151.1361628
Arncliffe Park,Mitchell Street,Arncliffe,New South Wales,2205,true,true,Park or reserve,false,false,false,false,true,true,false,false,false,Variable,false,false,false,false,false,-33.9356192,151.14163299
Cahill Park,Gertrude Street,Arncliffe,New South Wales,2205,true,true,Park or reserve,false,false,false,true,true,true,false,false,false,Variable,false,false,false,false,false,-33.93344754,151.1551721
Arncliffe Shopping Centre,Firth Street,Arncliffe,New South Wales,2205,false,false,Shopping centre,false,false,false,true,true,true,false,true,false,Variable,true,false,false,false,true,-33.93729234,151.1464506
Rockdale Park,Farr Street,Rockdale,New South Wales,2216,true,true,Park or reserve,false,false,false,false,false,false,false,false,false,Variable,false,false,false,false,false,-33.9524576,151.1457388
Boat Ramp,Mutch Avenue,Kyeemagh,New South Wales,2216,true,true,Park or reserve,false,false,false,true,true,true,false,false,true,AllHours,false,false,false,false,false,-33.94693957,151.162292
Cook Park General Holmes Drive opposite Beehag Street.,General Holmes Drive,Kyeemagh,New South Wales,2216,true,true,Park or reserve,false,false,false,false,false,false,true,false,false,Variable,false,true,false,false,true,-33.95106907,151.1630041
Cook Park  Grand Parade opposite Bruce Street.,The Grand Parade,Brighton-Le-Sands,New South Wales,2216,false,false,Park or reserve,false,false,false,false,false,false,true,false,false,Variable,true,true,false,false,true,-33.95836695,151.1580204
Cook Park Grand Parade opposite Duke Street.,Grand Parade,Brighton-Le-Sands,New South Wales,2216,true,true,Park or reserve,false,false,false,false,false,false,true,true,false,Variable,true,true,false,false,true,-33.96242528,151.1560269
Kogarah Bicentennial Park,West Botany Street,Kogarah,New South Wales,2217,true,true,Park or reserve,false,false,false,true,true,true,false,true,false,Variable,false,false,false,false,true,-33.9629458,151.144549
Carlton Exeloo Toilet,26 Carlton Pde,Carlton,New South Wales,2218,false,false,Train station,false,false,false,false,false,false,true,false,false,Variable,false,false,false,true,true,-33.96797304,151.12444818
Scarborough Park,Barton Street,Monterey,New South Wales,2217,true,true,Park or reserve,false,false,false,true,false,false,false,false,false,Variable,false,false,false,false,true,-33.97316277,151.1431685
Cook Park Grand Parade opposite Banks Street.,The Grand Parade,Monterey,New South Wales,2217,false,false,Car park,false,false,false,true,false,false,true,true,true,Variable,false,true,false,false,true,-33.96898615,151.15304
Cook Park Grand Parade opposite Emmaline Street,The Grand Parade,Monterey,New South Wales,2217,true,true,Park or reserve,false,false,false,false,false,false,false,false,false,Variable,false,false,false,false,false,-33.97947928,151.1496231
Cook Park Grand Parade opposite Alice Street.,The Grand Parade,Sans Souci,New South Wales,2219,true,true,Food outlet,false,false,false,true,false,false,true,true,false,Variable,true,false,false,false,true,-33.98962723,151.1469655
Cook Park Grand Pde opposite Ramsgate Road,Grand Parade,Ramsgate Beach,New South Wales,2217,false,false,Park or reserve,false,false,false,true,false,false,false,true,false,Variable,true,true,true,false,true,-33.98600296,151.1477248
Peter Depena Reserve - Pool,Sanoni Avenue,Sandringham,New South Wales,2219,true,true,Park or reserve,false,false,false,true,false,false,true,true,false,Variable,false,true,false,false,true,-33.99636605,151.1442429
Scott Park,Riverside Drive,Sans Souci,New South Wales,2219,true,true,Park or reserve,false,false,false,false,false,false,false,false,false,Variable,false,false,false,false,false,-34.0034246,151.1351486
Dolls Point,Vanston Parade,Sandringham,New South Wales,2219,false,false,Park or reserve,false,false,false,true,true,true,false,true,false,Variable,true,true,false,false,true,-34.00117128,151.1398722
Cook Park Grand Parade opposite Scarborough Street.,Grand Parade,Monterey,New South Wales,2217,true,true,Park or reserve,false,false,false,false,false,false,false,false,false,Variable,false,false,false,false,false,-33.97550984,151.1506585
Jubilee Park Public Toilet,Hypatia Street,Chinchilla,Queensland,4413,true,true,Park or reserve,false,false,false,false,false,false,false,false,false,AllHours,false,false,false,false,false,-26.74569132,150.6266863
Chinchilla Queens Park (Apex Park) Public Toilets,Middle Street,Chinchilla,Queensland,4413,true,true,Park or reserve,false,false,false,false,false,false,false,false,false,AllHours,false,false,false,false,false,-26.74510388,150.6298944
Chinchilla Cultural Centre Public Toilets,Heeney Street,Chinchilla,Queensland,4413,true,true,Other,false,false,false,false,true,true,false,false,false,Variable,false,false,false,false,false,-26.74083387,150.6251273
Wondai Road Public Toilets,Wondai Road,Chinchilla,Queensland,4413,true,true,Sporting facility,false,false,false,false,false,false,false,false,false,AllHours,false,false,false,false,false,-26.73506136,150.6301993
 Chinchilla Skate Park Public Toilets,Chinchilla Street,Chinchilla,Queensland,4413,true,true,Sporting facility,false,false,false,false,false,false,false,false,false,AllHours,false,false,false,false,false,-26.73751272,150.6262908
Middleton Park Public Toilets,Middleton Street,Chinchilla,Queensland,4413,true,true,Park or reserve,false,false,false,false,true,true,false,false,false,AllHours,false,false,false,false,false,-26.73520813,150.6412696
Chinchilla Lions Park Public Toilets,Helena Street,Chinchilla,Queensland,4413,true,true,Park or reserve,false,false,false,false,false,false,false,false,false,AllHours,false,false,false,false,false,-26.74274301,150.6197503
Kogan Hall Public Toilets,John Street,Kogan,Queensland,4406,true,true,Other,false,false,false,false,false,false,false,false,false,AllHours,false,false,false,false,false,-27.03596705,150.75582814
Carpenter Rocks 1,,Carpenter Rocks,South Australia,5291,true,true,Park or reserve,false,false,false,false,false,false,true,false,false,DaylightHours,false,false,false,false,false,-37.91098341,140.3953989
Carpenter Rocks 2,,Carpenter Rocks,South Australia,5291,true,true,Park or reserve,false,false,false,false,false,false,true,false,false,DaylightHours,false,false,false,false,false,-37.91354739,140.3982959
Blackfellows Caves,Blackfellows Caves,Blackfellows Caves,South Australia,5291,true,true,Park or reserve,false,false,false,false,true,true,false,false,false,AllHours,false,false,false,false,false,-37.94852481,140.4675437
Nene Valley,Glynn Drive,Nene Valley,South Australia,5291,true,true,Park or reserve,false,false,false,false,false,false,false,false,false,AllHours,false,false,false,false,false,-37.98885179,140.51812514
Tenterden Reserve,Sea Parade,Port Macdonnell,South Australia,5291,true,true,Park or reserve,false,false,false,false,false,false,false,false,false,AllHours,false,false,false,false,false,-38.05709083,140.69429697
Sea Parade,Sea Parade,Port Macdonnell,South Australia,5291,true,true,Park or reserve,false,false,false,false,false,false,false,false,false,AllHours,false,false,false,false,false,-38.05477379,140.6998557
Elizabeth Street,Elizabeth Street,Port Macdonnell,South Australia,5291,true,true,Sporting facility,false,false,false,false,false,false,false,false,false,AllHours,false,false,false,false,false,-38.05093169,140.69949943
Eight Mile Creek Road,Eight Mile Creek Road,Port Macdonnell,South Australia,5291,true,true,Car park,false,false,false,false,false,false,true,false,false,AllHours,false,false,false,false,false,-38.05063853,140.7193003
Allendale East,Bay Road,Allendale East,South Australia,5291,true,true,Sporting facility,false,false,false,false,false,false,false,false,false,AllHours,false,false,false,false,false,-38.00499634,140.7091836
Mount Schank,Mountain Path Road,Mount Schank,South Australia,5291,true,true,Park or reserve,false,false,false,false,false,false,true,false,false,AllHours,false,false,false,false,false,-37.94141164,140.7308731
Kongorong,,Kongorong,South Australia,5291,true,true,Sporting facility,false,false,false,false,false,false,false,false,false,AllHours,false,false,false,false,false,-37.9003702,140.55954219
Donovans,Adams Street,Donovans,South Australia,5291,true,true,Park or reserve,false,false,false,false,false,false,false,false,false,AllHours,false,false,false,false,false,-38.01270742,140.9595834
Donovans Foreshore,Dry Creek Road,Donovans,South Australia,5291,true,true,Park or reserve,false,false,false,false,false,false,false,false,false,AllHours,false,false,false,false,false,-38.01169241,140.9605164
Riddoch Highway,Edward Street,Tarpeena,South Australia,5277,true,true,Park or reserve,false,false,false,false,false,false,true,false,false,Variable,false,false,false,false,false,-37.62682273,140.7966724
Rotary Park,Shirley Street,Port Augusta West,South Australia,5700,true,true,Park or reserve,false,false,false,false,true,true,false,false,false,Variable,false,false,false,false,false,-32.48593655,137.7521118
Lions Park,20 Tottenham Road,Port Augusta,South Australia,5700,true,true,Park or reserve,false,false,false,false,true,true,false,false,false,Variable,false,false,false,false,false,-32.4985605,137.7761235
Keith Jones Memorial Park,Seaview Road,Port Augusta,South Australia,5700,true,true,Park or reserve,false,false,false,false,true,true,false,false,false,Variable,false,false,false,false,false,-32.49897817,137.7790697
Eastern Foreshore,"Foreshore, Yuda Street",Port Augusta,South Australia,5700,false,false,Park or reserve,false,false,false,false,false,false,true,false,false,AllHours,false,false,false,false,false,-32.48779434,137.7642064
Bird Lake ,Old Power Station Road ,Willsden,South Australia,5700,true,true,Other,false,false,false,false,true,true,false,false,false,AllHours,false,false,false,false,false,-32.50783055,137.7884322
Wadlata Outback Centre,41 Flinders Terrace,Port Augusta,South Australia,5700,true,true,Other,false,false,false,false,true,true,false,false,false,Variable,false,false,false,false,false,-32.49202021,137.7650443
Port Augusta Civic Centre,4 Mackay Street,Port Augusta,South Australia,5700,true,true,Other,false,false,false,false,false,false,true,false,false,Variable,false,false,false,false,false,-32.49121876,137.7643157
Lions Park,Corner Barraba & Longarm Roads,Barraba,New South Wales,2347,true,true,Park or reserve,false,false,false,false,false,false,false,false,false,AllHours,false,false,false,false,false,-30.420871,150.616427
Queen Street Mall Area,Queen Street,Barraba,New South Wales,2347,true,true,Other,false,false,false,true,true,true,false,false,false,AllHours,false,false,false,false,false,-30.37964615,150.6108203
Rotary Park,Queen Street,Barraba,New South Wales,2347,true,true,Park or reserve,false,false,false,false,false,false,false,false,false,AllHours,false,false,false,false,false,-30.37674801,150.6102799
Recreation Ground,Cobbadah Road,Barraba,New South Wales,2347,true,true,Park or reserve,false,false,false,false,false,false,false,false,false,AllHours,false,false,false,false,false,-30.370816,150.607538
Glenn Riddle Reserve,Pera-Linton Road,Red Hill,New South Wales,,true,true,Camping ground,false,false,false,false,true,true,false,false,false,AllHours,false,false,false,false,false,-30.450191,150.692629
Collie River,Eastwell Road,Australind,Western Australia,6233,true,true,Park or reserve,false,false,false,false,false,false,false,false,false,AllHours,false,false,false,true,false,-33.29281333,115.7186279
Christina Street Reserve,Old Coast Road,Australind,Western Australia,6233,true,true,Park or reserve,false,false,false,false,false,false,false,false,false,Variable,false,false,false,false,false,-33.2902314,115.7105788
,,,,,,,,,,,,,,,,,,,,,,,,
Ridley Place Reserve,Ridley Place,Australind,Western Australia,6233,true,true,Park or reserve,false,false,false,true,false,false,true,false,true,DaylightHours,false,true,false,true,false,-33.27870922,115.7135726
,,,,,,,,,,,,,,,,,,,,,,,,
Recreation Ground,Ridley Street,Brunswick Junction,Western Australia,6224,true,true,Sporting facility,false,false,false,true,false,false,false,false,false,AllHours,false,false,false,false,false,-33.25327143,115.836815
Brunswick Pool,South Western Highway,Brunswick Junction,Western Australia,6224,true,true,Sporting facility,false,false,false,true,false,false,false,false,true,DaylightHours,false,false,false,false,false,-33.25130835,115.841017
,,,,,,,,,,,,,,,,,,,,,,,,
Myalup Beach,Myalup Beach Road,Myalup,Western Australia,6220,true,true,Other,false,false,false,true,false,false,false,false,false,AllHours,false,true,false,false,false,-33.10357038,115.6873787
Snells Park,Haywood Street,Harvey,Western Australia,6220,true,true,Park or reserve,false,false,false,true,true,true,false,false,true,Variable,false,false,false,true,false,-33.07967659,115.896627
Recreation Ground,Young Street,Harvey,Western Australia,6220,true,true,Sporting facility,false,false,false,true,false,false,false,false,false,DaylightHours,false,false,false,true,false,-33.07794961,115.893146
,,,,,,,,,,,,,,,,,,,,,,,,
Holland Park,Great Southern Highway,Broomehill Village,Western Australia,6318,true,true,Park or reserve,false,false,false,true,false,false,true,false,false,AllHours,false,false,false,true,true,-33.8443215,117.639
Town Hall,Joaquina Street,York,Western Australia,6302,false,false,Other,false,false,false,false,false,false,true,false,false,Variable,true,false,false,false,false,-31.89149922,116.7680453
Tower Street,Goldfields Highway,Leonora,Western Australia,6438,true,true,Car park,false,false,false,false,true,true,false,false,false,AllHours,false,false,false,false,false,-28.8836155,121.330525
Lowood Road  - Centre of Town,Lowood Road,Mount Barker,Western Australia,6324,true,true,Car park,false,false,false,false,true,true,false,false,false,AllHours,false,false,false,false,false,-34.62815233,117.6626316
Albany Highway,Albany Highway,Mount Barker,Western Australia,6324,true,true,Other,false,false,false,true,false,false,false,false,true,Variable,false,false,false,false,false,-34.62813101,117.6640797
,,,,,,,,,,,,,,,,,,,,,,,,
,,,,,,,,,,,,,,,,,,,,,,,,
,,,,,,,,,,,,,,,,,,,,,,,,
,,,,,,,,,,,,,,,,,,,,,,,,
,,,,,,,,,,,,,,,,,,,,,,,,
,,,,,,,,,,,,,,,,,,,,,,,,
,,,,,,,,,,,,,,,,,,,,,,,,
,,,,,,,,,,,,,,,,,,,,,,,,
Porongurup Hall,Mount Barker Porongurup Rd,Porongurup,Western Australia,6324,true,true,Car park,false,false,false,false,false,false,false,false,false,AllHours,false,false,false,false,false,-34.6721294,117.9043161
Railway Square,Walton Street,Corrigin,Western Australia,6375,true,true,Park or reserve,false,false,false,true,false,false,false,false,true,AllHours,true,false,false,false,true,-32.33091798,117.87313897
Rotary Park,Kirkwood Street,Corrigin,Western Australia,6375,true,true,Park or reserve,false,false,false,true,false,false,false,false,false,AllHours,false,false,false,false,true,-32.33311546,117.8770916
Shenton Street,124 Shenton Street,Menzies,Western Australia,6436,true,true,Other,false,false,false,false,false,false,false,false,false,AllHours,false,false,false,false,false,-29.69421082,121.0302579
,,,,,,,,,,,,,,,,,,,,,,,,
Apex Park,High Street,Rutherglen,Victoria,3685,true,true,Park or reserve,false,false,false,false,true,true,false,false,false,AllHours,false,false,false,false,false,-36.05433612,146.4570156
Lake Sambell,McConville Avenue,Beechworth,Victoria,3747,true,true,Park or reserve,false,false,false,false,false,false,false,false,false,AllHours,false,false,false,false,false,-36.36029193,146.69358292
